ski_resort_name,city,country,longitude,latitude,rating,elevation_info,total_slopes,blue_slopes,red_slopes,black_slopes,total_lifts,total_big_gondolas,total_gondolas,total_chairlifts,total_t_bars,total_moving_carpets
Ski resort Ponte di Legno/​Tonale/​Presena Glacier/​Temù (Pontedilegno-Tonale),Passo del Tonale (Tonale Pass),Italy,10.5818471,46.2580068,4.2 out of 5 stars,1121 m - 3000 m (Difference 1879 m),100.0,24.0,60.0,16.0,30.0,0,4,19,3,4
Ski resort Ofterschwang/​Gunzesried – Ofterschwanger Horn,Ofterschwang,Germany,10.2362108,47.5008514,3.7 out of 5 stars,880 m - 1405 m (Difference 525 m),16.5,4.6,9.2,2.7,7.0,0,2,2,1,0
Ski resort Sonnenkopf – Klösterle,Klösterle,Austria,10.0921339,47.1312847,3.6 out of 5 stars,1000 m - 2300 m (Difference 1300 m),29.5,12.8,15.9,0.8,9.0,0,1,4,3,0
Ski resort Hochficht,Klaffer am Hochficht,Austria,13.8803764,48.6955597,3.6 out of 5 stars,866 m - 1338 m (Difference 472 m),20.1,9.1,10.0,1.0,9.0,0,2,3,2,2
Ski resort Schlick 2000 – Fulpmes,Fulpmes,Austria,11.3490587,47.1530974,3.9 out of 5 stars,1009 m - 2240 m (Difference 1231 m),25.0,13.5,8.0,3.5,9.0,0,3,3,3,0
Ski resort St. Anton/​St. Christoph/​Stuben/​Lech/​Zürs/​Warth/​Schröcken – Ski Arlberg,St. Anton am Arlberg,Austria,10.2663669,47.1288996,4.8 out of 5 stars,1304 m - 2811 m (Difference 1507 m),302.0,130.0,122.0,50.0,85.0,5,12,42,21,1
Ski resort SkiWelt Wilder Kaiser-Brixental,Ellmau,Austria,12.3024747,47.5136972,4.8 out of 5 stars,620 m - 1869 m (Difference 1249 m),275.0,115.0,121.0,39.0,81.0,0,16,32,14,9
Ski resort Serfaus-Fiss-Ladis,Serfaus,Austria,10.6103285,47.0375066,4.8 out of 5 stars,1200 m - 2828 m (Difference 1628 m),186.0,47.0,112.0,27.0,38.0,0,11,16,8,0
Ski resort Saalbach Hinterglemm Leogang Fieberbrunn (Skicircus),Saalbach,Austria,12.6364473,47.3914586,4.7 out of 5 stars,830 m - 2096 m (Difference 1266 m),270.0,140.0,112.0,18.0,69.0,0,28,21,16,1
Ski resort St. Moritz – Corviglia,St. Moritz,Switzerland,9.8392428,46.4978958,4.7 out of 5 stars,1735 m - 3057 m (Difference 1322 m),155.0,42.0,79.0,34.0,23.0,2,1,12,3,0
Ski resort Schladming – Planai/​​Hochwurzen/​​Hauser Kaibling/​​Reiteralm (4-Berge-Skischaukel),Schladming,Austria,13.6867878,47.3940415,4.7 out of 5 stars,728 m - 2015 m (Difference 1287 m),123.0,46.4,68.3,8.3,47.0,1,10,19,12,3
Ski resort Sölden,Sölden,Austria,11.0070193,46.9673961,4.7 out of 5 stars,1350 m - 3340 m (Difference 1990 m),147.0,69.8,44.8,31.9,31.0,0,8,13,8,1
Ski resort Arosa Lenzerheide,Arosa,Switzerland,9.6781356,46.7797248,4.7 out of 5 stars,1229 m - 2865 m (Difference 1636 m),225.0,110.0,87.0,28.0,43.0,4,4,18,16,0
Ski resort Mayrhofen – Penken/​Ahorn/​Rastkogel/​Eggalm,Mayrhofen,Austria,11.8638664,47.1672188,4.7 out of 5 stars,630 m - 2500 m (Difference 1870 m),142.0,44.0,66.0,32.0,58.0,2,7,17,11,13
Ski resort Tignes/​Val d'Isère,Tignes le Lac,France,6.907594,45.4697293,4.6 out of 5 stars,1550 m - 3456 m (Difference 1906 m),300.0,170.0,78.0,52.0,85.0,2,8,41,25,0
Ski resort Les 3 Vallées – Val Thorens/​Les Menuires/​Méribel/​Courchevel,Val Thorens,France,6.5822693,45.2979109,4.6 out of 5 stars,(612 m  -) 1100 m - 3230 m (Difference 2130 m),600.0,312.0,216.0,72.0,157.0,4,35,57,35,0
Ski resort Zermatt/​Breuil-Cervinia/​Valtournenche – Matterhorn,Zermatt,Switzerland,7.749254,46.0212076,4.5 out of 5 stars,1562 m - 3899 m (Difference 2337 m),322.0,75.0,220.0,27.0,51.0,8,11,22,6,0
Ski resort Snow Space Salzburg – Flachau/​Wagrain/​St. Johann-Alpendorf,Alpendorf,Austria,13.1954241,47.3225067,4.5 out of 5 stars,740 m - 1980 m (Difference 1240 m),120.0,34.0,82.1,4.0,45.0,2,10,16,8,2
Ski resort Laax/​Flims/​Falera,Flims,Switzerland,9.2834557,46.8332439,4.5 out of 5 stars,1100 m - 3018 m (Difference 1918 m),214.0,87.0,76.0,51.0,30.0,2,13,7,8,0
Ski resort Grandvalira – Pas de la Casa/​Grau Roig/​Soldeu/​El Tarter/​Canillo/​Encamp,Canillo,Andorra,1.657443091509017,42.586809200000005,4.4 out of 5 stars,(1300 m  -) 1710 m - 2640 m (Difference 930 m),215.0,100.0,82.0,33.0,74.0,0,6,28,25,0
Ski resort Schmittenhöhe – Zell am See,Zell am See,Austria,12.7963165,47.3239636,4.4 out of 5 stars,760 m - 2000 m (Difference 1240 m),77.0,30.0,28.0,19.0,28.0,2,7,10,4,2
Ski resort Bad Gastein/​Bad Hofgastein – Schlossalm/​Angertal/​Stubnerkogel,Bad Hofgastein,Austria,13.1060635,47.1703104,4.4 out of 5 stars,860 m - 2300 m (Difference 1440 m),82.7,30.8,49.3,2.6,18.0,1,7,6,3,0
Ski resort Nassfeld – Hermagor,Sonnenalpe Nassfeld,Austria,13.2745415,46.5638824,4.4 out of 5 stars,600 m - 2002 m (Difference 1402 m),110.0,30.0,69.0,11.0,30.0,0,5,9,10,5
Ski resort Adelboden/​Lenk – Chuenisbärgli/​Silleren/​Hahnenmoos/​Metsch,Adelboden,Switzerland,7.5587618,46.4927213,4.4 out of 5 stars,(1072 m  -) 1260 m - 2200 m (Difference 940 m),86.0,46.0,34.0,6.0,25.0,0,5,7,6,2
Ski resort La Plagne (Paradiski),Plagne Centre,France,6.6743647,45.5058779,4.4 out of 5 stars,1207 m - 3167 m (Difference 1960 m),225.0,139.0,59.0,27.0,74.0,2,11,29,22,0
Ski resort Serre Chevalier – Briançon/​Chantemerle/​Villeneuve-la-Salle/​Le Monêtier-les-Bains,Chantemerle,France,3.65927,48.61157,4.4 out of 5 stars,1200 m - 2800 m (Difference 1600 m),250.0,138.0,80.0,32.5,59.0,1,5,20,25,0
Ski resort Andermatt/​Oberalp/​Sedrun,Andermatt,Switzerland,8.5948148,46.6340499,4.4 out of 5 stars,1444 m - 2600 m (Difference 1156 m),70.0,18.0,40.0,12.0,13.0,0,3,8,1,0
Ski resort Trysil,Trysil Turistsenter,Norway,12.24202,61.305959,4.4 out of 5 stars,395 m - 1100 m (Difference 705 m),78.0,40.0,18.0,20.0,31.0,0,0,6,25,0
Ski resort 4 Vallées – Verbier/​La Tzoumaz/​Nendaz/​Veysonnaz/​Thyon,Verbier,Switzerland,7.2286765,46.0961011,4.3 out of 5 stars,(826 m  -) 1350 m - 3330 m (Difference 1980 m),412.0,107.0,202.0,103.0,68.0,4,13,16,30,0
Ski resort Klausberg – Skiworld Ahrntal,Steinhaus (Cadipietra),Italy,11.9812416,46.9960093,4.3 out of 5 stars,1050 m - 2510 m (Difference 1460 m),40.5,19.4,14.3,6.8,11.0,0,4,4,0,3
Ski resort Alpe di Siusi (Seiser Alm),Seiser Alm (Alpe di Siusi),Italy,11.6170037,46.5423625,4.3 out of 5 stars,(1000 m  -) 1227 m - 2220 m (Difference 993 m),63.0,15.0,45.0,3.0,21.0,0,2,15,3,0
Ski resort 3 Zinnen Dolomites – Helm/​Stiergarten/​Rotwand/​Kreuzbergpass,Vierschach (Versciaco),Italy,12.3267494,46.730454,4.3 out of 5 stars,1130 m - 2200 m (Difference 1070 m),86.4,40.4,37.6,8.4,20.0,0,6,5,8,0
Ski resort Scuol – Motta Naluns,Scuol,Switzerland,10.2996234,46.7976371,4.3 out of 5 stars,1250 m - 2785 m (Difference 1535 m),70.0,27.0,32.0,11.0,12.0,0,1,6,2,3
Ski resort Hafjell,Hafjell,Norway,10.5269539,61.2296722,4.3 out of 5 stars,195 m - 1059 m (Difference 864 m),50.0,38.0,8.0,4.0,18.0,0,1,4,10,3
Ski resort Titlis – Engelberg,Engelberg,Switzerland,8.4043996,46.8223497,4.3 out of 5 stars,1003 m - 3020 m (Difference 2017 m),70.0,18.0,42.5,9.5,18.0,3,2,6,4,1
Ski resort La Molina/​Masella – Alp2500,La Molina,Spain,1.9562059,42.3427392,4.3 out of 5 stars,1616 m - 2537 m (Difference 921 m),145.0,80.0,47.0,18.0,33.0,0,1,13,9,8
Ski resort Livigno,Livigno,Italy,10.1359928,46.5381734,4.3 out of 5 stars,1816 m - 2798 m (Difference 982 m),115.0,30.0,65.0,20.0,33.0,0,7,14,11,0
Ski resort Turracher Höhe,Turracher Höhe,Austria,13.8746649,46.9154974,4.3 out of 5 stars,1400 m - 2205 m (Difference 805 m),42.7,14.5,25.0,3.2,15.0,0,0,6,7,0
Ski resort Alta Badia,Corvara,Italy,13.8726935,42.2748753,4.3 out of 5 stars,1324 m - 2778 m (Difference 1454 m),130.0,74.0,47.0,9.0,53.0,1,10,30,11,0
Ski resort Les Portes du Soleil – Morzine/​Avoriaz/​Les Gets/​Châtel/​Morgins/​Champéry,Avoriaz,Switzerland,,,4.3 out of 5 stars,985 m - 2254 m (Difference 1269 m),580.0,310.0,210.0,60.0,165.0,2,10,71,73,0
Ski resort Levi,Sirkka,Finland,24.8055734,67.8075595,4.3 out of 5 stars,196 m - 531 m (Difference 335 m),38.5,17.5,18.1,2.9,26.0,1,1,5,16,3
Ski resort Les 2 Alpes,Les Deux Alpes,France,6.155042572020265,45.00888515,4.3 out of 5 stars,(979 m  -) 1280 m - 3523 m (Difference 2243 m),200.0,110.0,56.0,34.0,44.0,0,5,14,15,0
Ski resort Katschberg,Katschberghöhe,Austria,13.615553,47.0593103,4.3 out of 5 stars,1066 m - 2220 m (Difference 1154 m),80.0,12.0,56.0,12.0,17.0,0,3,5,8,1
Ski resort Via Lattea – Sestriere/​Sauze d’Oulx/​San Sicario/​Claviere/​Montgenèvre,Sestriere,Italy,6.8786855,44.9584528,4.2 out of 5 stars,(1359 m  -) 1538 m - 2789 m (Difference 1251 m),400.0,96.0,220.0,84.0,70.0,1,5,35,19,0
Ski resort Parsenn (Davos Klosters),Davos,Switzerland,9.8236892,46.796198,4.2 out of 5 stars,810 m - 2844 m (Difference 2034 m),95.5,17.3,60.5,17.7,18.0,4,2,6,4,0
Ski resort Belvedere/​Col Rodella/​Ciampac/​Buffaure – Canazei/​Campitello/​Alba/​Pozza di Fassa,Canazei,Italy,11.7710748,46.4768809,4.2 out of 5 stars,1320 m - 2485 m (Difference 1165 m),55.2,7.3,40.7,7.2,35.0,4,7,17,6,0
Ski resort Kvitfjell,Kvitfjell,Norway,9.0280158,58.6834043,4.2 out of 5 stars,185 m - 1032 m (Difference 847 m),39.0,21.5,12.5,5.0,14.0,1,0,4,6,3
Ski resort Großarltal/​Dorfgastein,Dorfgastein,Austria,13.098596670094224,47.24058685,4.2 out of 5 stars,849 m - 2033 m (Difference 1184 m),67.5,31.0,35.0,1.5,16.0,0,6,6,4,0
Ski resort Passo San Pellegrino/​Falcade,Passo San Pellegrino,Italy,11.7917199,46.3783576,4.2 out of 5 stars,1190 m - 2513 m (Difference 1323 m),67.5,20.5,38.5,8.5,15.0,1,1,9,4,0
Ski resort Speikboden – Skiworld Ahrntal,Sand in Taufers (Campo Tures),Italy,11.9551824,46.9192363,4.2 out of 5 stars,950 m - 2400 m (Difference 1450 m),41.5,22.8,13.0,5.7,8.0,0,2,3,0,3
Ski resort Obersaxen/​Mundaun/​Val Lumnezia,Obersaxen Mundaun,Switzerland,9.069160133222404,46.723543500000005,4.2 out of 5 stars,1201 m - 2310 m (Difference 1109 m),120.0,60.0,40.0,20.0,15.0,0,0,9,3,0
Ski resort Saint-Lary-Soulan,Saint-Lary Soulan,France,0.3219538,42.816936,4.2 out of 5 stars,(813 m  -) 1597 m - 2515 m (Difference 918 m),105.0,60.0,35.0,10.0,24.0,1,2,10,9,2
Ski resort Grimentz/​Zinal,Grimentz,Switzerland,7.573834,46.1802947,4.2 out of 5 stars,1570 m - 2900 m (Difference 1330 m),115.0,26.5,58.6,29.9,21.0,1,3,5,9,3
Ski resort Åre,Åre,Sweden,13.0822241,63.4010888,4.2 out of 5 stars,380 m - 1274 m (Difference 894 m),91.0,45.0,38.0,8.0,35.0,1,1,5,23,0
Ski resort Baqueira/​Beret,Baqueira,Spain,0.9316411,42.6992676,4.2 out of 5 stars,1500 m - 2610 m (Difference 1110 m),165.0,77.0,68.0,20.0,36.0,0,2,18,8,7
Ski resort Kreischberg,Sankt Lorenzen ob Murau,Austria,14.0929934,47.1008207,4.2 out of 5 stars,868 m - 2118 m (Difference 1250 m),42.5,17.5,16.0,9.0,12.0,0,3,3,4,1
Ski resort Jakobshorn (Davos Klosters),Davos-Platz,Switzerland,9.8210273,46.7917679,4.2 out of 5 stars,1535 m - 2568 m (Difference 1033 m),41.2,25.5,13.2,2.5,13.0,3,0,5,3,2
Ski resort Kopaonik,Kopaonik,Serbia,20.826741,43.2689885,4.2 out of 5 stars,1060 m - 2017 m (Difference 957 m),55.0,30.0,19.0,6.0,26.0,0,1,10,10,4
Ski resort Alpe d'Huez,Alpe d'Huez,France,6.0699443,45.092401,4.2 out of 5 stars,1125 m - 3330 m (Difference 2205 m),250.0,70.0,130.0,50.0,69.0,3,14,15,19,0
Ski resort Bansko,Bansko,Bulgaria,23.4841698,41.8344086,4.2 out of 5 stars,990 m - 2530 m (Difference 1540 m),75.0,44.0,25.0,6.0,14.0,0,2,8,4,0
Ski resort Le Grand Massif – Flaine/​Les Carroz/​Morillon/​Samoëns/​Sixt,Morillon-Les Esserts,France,6.672816,46.0653095,4.1 out of 5 stars,697 m - 2480 m (Difference 1783 m),265.0,135.0,95.0,35.0,62.0,0,7,22,25,0
Ski resort Sierra Nevada – Pradollano,Pradollano,Spain,-3.3990897,37.0943309,4.1 out of 5 stars,2100 m - 3300 m (Difference 1200 m),113.0,51.5,53.0,8.0,23.0,0,2,14,3,4
Ski resort Les Arcs/​Peisey-Vallandry (Paradiski),Arc 1600,France,6.7946151,45.5941276,4.1 out of 5 stars,(807 m  -) 1200 m - 3226 m (Difference 2026 m),200.0,104.0,70.0,26.0,53.0,2,6,26,9,0
Ski resort Belalp – Blatten,Belalp,Switzerland,7.9724714,46.3714358,4.1 out of 5 stars,1322 m - 3118 m (Difference 1796 m),38.5,15.1,12.1,11.3,13.0,1,1,3,4,4
Ski resort Arabba/​Marmolada,Arabba,Italy,11.8740902,46.4971763,4.1 out of 5 stars,1446 m - 3269 m (Difference 1823 m),63.0,23.6,30.5,8.9,26.0,5,4,16,1,0
Ski resort Megève/​Saint-Gervais,Le Fayet,France,4.0752181,45.2516102,4.1 out of 5 stars,850 m - 2353 m (Difference 1503 m),263.0,98.0,134.0,31.0,81.0,2,8,27,39,0
Ski resort Espace Diamant – Les Saisies/​Notre-Dame-de-Bellecombe/​Praz sur Arly/​Flumet/​Crest-Voland,Les Saisies,France,6.5394475,45.7573298,4.1 out of 5 stars,1000 m - 2069 m (Difference 1069 m),192.0,132.0,49.0,11.0,82.0,0,1,30,46,0
Ski resort Kläppen,Kläppen,Sweden,12.9374916,63.1722015,4.1 out of 5 stars,340 m - 655 m (Difference 315 m),26.0,20.3,3.5,2.2,21.0,0,1,1,15,2
Ski resort Zauchensee/​Flachauwinkl,Zauchensee,Austria,13.4568962,47.2933062,4.1 out of 5 stars,1000 m - 2176 m (Difference 1176 m),45.0,23.5,17.2,4.3,16.0,0,3,6,5,1
Ski resort Hochzeiger – Jerzens,Jerzens,Austria,10.7469146,47.1512086,4.1 out of 5 stars,1450 m - 2488 m (Difference 1038 m),40.0,10.0,22.0,8.0,9.0,0,1,4,4,0
Ski resort Cortina d'Ampezzo,Cortina d'Ampezzo,Italy,12.1373506,46.5383332,4.1 out of 5 stars,1217 m - 2828 m (Difference 1611 m),120.0,45.0,59.0,16.0,26.0,3,2,19,2,0
Ski resort See,See,Austria,11.0034719,46.9682801,4.1 out of 5 stars,1040 m - 2570 m (Difference 1530 m),42.5,7.2,27.0,8.3,11.0,0,3,2,3,3
Ski resort Kühtai,Kühtai,Austria,11.0234047,47.2136222,4.1 out of 5 stars,1938 m - 2520 m (Difference 582 m),46.9,9.3,26.8,10.8,12.0,0,1,6,3,2
Ski resort Stubai Glacier (Stubaier Gletscher),Neustift im Stubaital,Austria,11.307579,47.1106408,4.1 out of 5 stars,1697 m - 3212 m (Difference 1515 m),68.1,22.0,15.0,31.1,26.0,0,5,7,8,4
Ski resort Corvatsch/​Furtschellas,Surlej,Switzerland,9.8118384,46.4578296,4.1 out of 5 stars,1797 m - 3303 m (Difference 1506 m),120.0,13.0,89.3,17.7,14.0,3,0,6,5,0
Ski resort Ruka,Ruka Village,Finland,29.1311291,66.1702656,4.0 out of 5 stars,291 m - 492 m (Difference 201 m),19.1,9.1,7.0,3.0,22.0,0,1,5,9,6
Ski resort Stöten,Stöten,Sweden,12.8904555,61.2660478,4.0 out of 5 stars,438 m - 830 m (Difference 392 m),32.0,26.0,3.0,3.0,24.0,0,0,2,19,3
Ski resort Formigal,Formigal,Spain,-0.3608611,42.7741349,4.0 out of 5 stars,1501 m - 2265 m (Difference 764 m),143.0,48.0,75.0,20.0,21.0,0,0,13,4,0
Ski resort Alagna Valsesia/​Gressoney-La-Trinité/​Champoluc/​Frachey (Monterosa Ski),Alagna Valsesia,Italy,7.9371767,45.8512107,4.0 out of 5 stars,1212 m - 3275 m (Difference 2063 m),132.0,29.0,89.0,14.0,20.0,3,5,10,1,0
Ski resort Radstadt/​Altenmarkt,Altenmarkt im Pongau,Austria,13.441698918286551,47.33845535,4.0 out of 5 stars,850 m - 1571 m (Difference 721 m),17.3,9.2,7.5,0.6,7.0,0,3,2,2,0
Ski resort Hemsedal,Hemsedal Skisenter,Norway,8.503847042221093,60.850298300000006,4.0 out of 5 stars,620 m - 1450 m (Difference 830 m),44.1,29.2,10.8,4.1,21.0,0,0,5,13,3
Ski resort Alpe Lusia – Moena/​Bellamonte,Moena,Italy,11.6592663,46.3769434,4.0 out of 5 stars,1367 m - 2340 m (Difference 973 m),27.5,12.9,10.6,4.0,8.0,0,4,3,1,0
Ski resort Galtür – Silvapark,Galtür,Austria,10.1865341,46.9681674,4.0 out of 5 stars,1600 m - 2300 m (Difference 700 m),43.0,6.0,25.0,12.0,10.0,0,2,2,5,0
Ski resort Ladurns,Pflersch (Fleres),Italy,11.4205483,46.9438674,4.0 out of 5 stars,1140 m - 2030 m (Difference 890 m),18.0,8.4,8.4,1.2,3.0,0,1,1,1,0
Ski resort Civetta – Alleghe/​Selva di Cadore/​Palafavera/​Zoldo,Alleghe,Italy,12.0214638,46.4066372,4.0 out of 5 stars,1000 m - 2100 m (Difference 1100 m),72.0,28.0,36.0,8.0,23.0,0,3,10,10,0
Ski resort Peyragudes,Peyresourde,France,2.7421867,44.048888,4.0 out of 5 stars,(950 m  -) 1600 m - 2400 m (Difference 800 m),42.0,21.0,18.0,3.0,19.0,0,1,9,5,3
Ski resort Hinterstoder – Höss,Hinterstoder,Austria,14.1554223,47.6998016,4.0 out of 5 stars,600 m - 2000 m (Difference 1400 m),39.9,12.0,18.0,9.9,13.0,0,2,2,7,2
Ski resort Dachstein West – Gosau/​Russbach/​Annaberg,Annaberg im Lammertal,Austria,13.4333333,47.5167,4.0 out of 5 stars,745 m - 1617 m (Difference 872 m),51.0,15.0,33.0,3.0,22.0,0,3,8,6,5
Ski resort St. Johann in Tirol/​Oberndorf – Harschbichl,St. Johann in Tirol,Austria,12.4286809,47.5224141,4.0 out of 5 stars,659 m - 1604 m (Difference 945 m),40.0,21.5,18.0,0.5,10.0,0,4,3,2,0
Ski resort Gerlitzen,Annenheim,Austria,13.9007214,46.6599356,4.0 out of 5 stars,(500 m  -) 1000 m - 1911 m (Difference 911 m),51.6,12.4,33.1,6.1,21.0,0,1,8,4,6
Ski resort Golm,Latschau,Austria,9.8719373,47.0757157,4.0 out of 5 stars,650 m - 2100 m (Difference 1450 m),26.7,13.3,11.9,1.5,9.0,0,3,4,2,0
Ski resort Hintertux Glacier (Hintertuxer Gletscher),Hintertux,Austria,11.6824994,47.1150202,4.0 out of 5 stars,1500 m - 3250 m (Difference 1750 m),62.0,16.2,34.1,11.7,21.0,0,6,6,7,0
Ski resort Les Sybelles – Le Corbier/​La Toussuire/​Les Bottières/​St Colomban des Villards/​St Sorlin/​St Jean d’Arves,Le Corbier,France,3.7676614,47.0638042,4.0 out of 5 stars,1100 m - 2620 m (Difference 1520 m),310.0,71.3,217.0,21.7,68.0,0,1,28,30,0
Ski resort Cerler,Cerler,Spain,0.5384221,42.5927404,4.0 out of 5 stars,1500 m - 2630 m (Difference 1130 m),80.0,36.0,29.0,15.0,20.0,0,0,10,3,6
Ski resort Saas-Fee,Saas-Fee,Switzerland,7.9247055,46.107342,4.0 out of 5 stars,1800 m - 3573 m (Difference 1773 m),100.0,20.0,60.0,20.0,23.0,2,6,2,12,0
Ski resort Jasná Nízke Tatry – Chopok,Demänovská Dolina,Slovakia,19.5830227,48.9719516,4.0 out of 5 stars,943 m - 2004 m (Difference 1061 m),51.2,24.2,19.1,7.9,19.0,0,5,8,6,0
Ski resort Rinderberg/​Saanerslochgrat/​Horneggli – Zweisimmen/​Saanenmöser/​Schönried/​St. Stephan,Zweisimmen,Switzerland,7.3738058,46.553261,4.0 out of 5 stars,948 m - 2011 m (Difference 1063 m),88.9,64.3,20.6,4.0,15.0,0,4,7,4,0
Ski resort Pyhä,Pyhä,Finland,21.8610745,60.6524159,4.0 out of 5 stars,203 m - 500 m (Difference 297 m),13.4,7.0,4.4,2.0,9.0,0,0,3,5,1
Ski resort Brigels/​Waltensburg/​Andiast,Brigels (Brei),Switzerland,,,4.0 out of 5 stars,1102 m - 2418 m (Difference 1316 m),40.0,11.0,26.0,3.0,10.0,0,0,4,2,0
Ski resort Voss Resort,Voss,Norway,6.407905054203272,60.6837067,4.0 out of 5 stars,(56 m  -) 284 m - 964 m (Difference 680 m),45.0,25.0,8.0,12.0,11.0,0,1,2,6,2
Ski resort Les Angles,Les Angles,France,0.0062129,43.0835762,4.0 out of 5 stars,1600 m - 2376 m (Difference 776 m),55.0,22.0,23.0,10.0,23.0,0,1,4,12,6
Ski resort Plose – Brixen (Bressanone),St. Andrä (Sant'Andrea),Italy,13.6024247,45.9226588,4.0 out of 5 stars,1039 m - 2505 m (Difference 1466 m),42.5,19.5,9.5,13.5,7.0,0,2,4,1,0
Ski resort Almenwelt Lofer,Lofer,Austria,12.6934197,47.5866984,4.0 out of 5 stars,640 m - 1670 m (Difference 1030 m),46.0,32.0,12.0,2.0,10.0,0,2,3,3,0
Ski resort Ylläs,Yllasjarvi,Finland,24.3062996,67.5245354,4.0 out of 5 stars,255 m - 719 m (Difference 464 m),53.0,21.0,26.0,6.0,26.0,0,1,2,20,3
Ski resort Stoos – Fronalpstock/​Klingenstock,Stoos,Switzerland,7.9101456,47.1237971,3.9 out of 5 stars,(563 m  -) 1300 m - 1935 m (Difference 635 m),35.0,4.0,21.0,10.0,8.0,1,0,3,3,0
Ski resort Fellhorn/​Kanzelwand – Oberstdorf/​Riezlern,Oberstdorf,Germany,10.2792549,47.4193767,3.9 out of 5 stars,920 m - 1967 m (Difference 1047 m),34.0,13.0,19.0,2.0,14.0,2,2,6,3,0
Ski resort Hemavan,Hemavan,Sweden,15.08528,65.8152777,3.9 out of 5 stars,470 m - 1135 m (Difference 665 m),30.0,19.0,9.0,2.0,10.0,0,0,0,8,0
Ski resort Geilo,Geilo,Norway,8.2063719,60.5345261,3.9 out of 5 stars,779 m - 1178 m (Difference 399 m),34.2,18.0,12.0,4.2,20.0,0,0,4,12,4
Ski resort Berwang/​Bichlbach/​Rinnen,Berwang,Austria,10.747685,47.4091141,3.9 out of 5 stars,1079 m - 1743 m (Difference 664 m),36.0,19.2,15.2,1.6,13.0,0,1,4,6,1
Ski resort Galibier Thabor – Valmeinier/​Valloire,Valloire,France,6.4296372,45.165,3.9 out of 5 stars,1430 m - 2750 m (Difference 1320 m),160.0,60.0,85.0,15.0,30.0,0,2,17,10,0
Ski resort Espace San Bernardo – La Rosière/​La Thuile,La Thuile,France,6.0548688,45.5332609,3.9 out of 5 stars,1190 m - 2800 m (Difference 1610 m),144.0,57.0,70.5,16.6,38.0,0,1,21,11,5
Ski resort Val Cenis – Lanslevillard/​Lanslebourg/​Termignon,Lanslebourg-Mont-Cenis,France,6.8766492,45.2852643,3.9 out of 5 stars,1300 m - 2800 m (Difference 1500 m),125.0,73.0,42.0,10.0,29.0,0,2,13,14,0
Ski resort Vars/​Risoul – La Forêt Blanche,Risoul 1850,France,6.633562994753143,44.62255495,3.9 out of 5 stars,1650 m - 2750 m (Difference 1100 m),185.0,75.0,90.0,20.0,34.0,0,1,18,12,0
Ski resort Tandådalen/​Hundfjället (Sälen),Tandådalen,Sweden,12.9919443,61.1792462,3.9 out of 5 stars,572 m - 872 m (Difference 300 m),45.0,18.0,15.0,12.0,40.0,0,0,5,35,0
Ski resort Idre Fjäll,Idre Fjäll,Sweden,12.8330743,61.8896064,3.9 out of 5 stars,588 m - 890 m (Difference 302 m),41.0,17.0,22.0,2.0,24.0,0,1,4,15,4
Ski resort Le Grand Domaine – Valmorel/​Doucy/​Celliers/​St François Longchamp,Valmorel,France,6.4562373,45.4781616,3.9 out of 5 stars,1250 m - 2403 m (Difference 1153 m),165.0,115.0,35.0,15.0,47.0,0,4,14,25,0
Ski resort Hoch-Ybrig – Unteriberg/​Oberiberg,Weglosen,Switzerland,8.812121957928525,47.01978715,3.8 out of 5 stars,1040 m - 1831 m (Difference 791 m),50.0,15.0,30.0,5.0,12.0,1,0,5,3,3
Ski resort Pitztal Glacier (Pitztaler Gletscher),Mandarfen,Austria,10.8709624,46.9687229,3.8 out of 5 stars,(1740 m  -) 2685 m - 3440 m (Difference 755 m),40.0,8.0,30.0,2.0,7.0,0,2,1,2,1
Ski resort Rauriser Hochalmbahnen – Rauris,Rauris,Austria,12.956604,47.1582215,3.8 out of 5 stars,950 m - 2175 m (Difference 1225 m),32.5,15.0,12.5,5.0,10.0,0,3,1,4,0
Ski resort Ehrwalder Alm – Ehrwald,Ehrwald,Austria,10.9205046,47.3986534,3.8 out of 5 stars,1112 m - 1923 m (Difference 811 m),27.5,18.1,7.4,2.0,7.0,0,1,3,2,0
Ski resort Myrkdalen,Myrkdalen,Norway,6.4666278,60.8420056,3.8 out of 5 stars,450 m - 1060 m (Difference 610 m),32.0,14.0,13.5,4.5,9.0,0,0,2,6,0
Ski resort Riesneralm – Donnersbachwald,Donnersbachwald,Austria,14.1166667,47.3833333,3.8 out of 5 stars,973 m - 1820 m (Difference 847 m),32.2,20.2,9.0,3.0,8.0,0,0,3,1,4
Ski resort Alpe Cermis – Cavalese,Cavalese,Italy,11.4604681,46.291187,3.8 out of 5 stars,860 m - 2250 m (Difference 1390 m),24.0,10.0,9.0,5.0,7.0,0,3,3,1,0
Ski resort Rosskopf (Monte Cavallo) – Sterzing (Vipiteno),Sterzing (Vipiteno),Italy,11.4319398,46.8963235,3.8 out of 5 stars,948 m - 2120 m (Difference 1172 m),20.0,6.0,13.0,1.0,3.0,0,1,1,0,0
Ski resort Lauchernalp – Lötschental,Lauchernalp,Switzerland,7.774925346107426,46.41274665,3.8 out of 5 stars,1403 m - 3100 m (Difference 1697 m),40.0,18.0,15.0,7.0,6.0,1,1,2,1,1
Ski resort Les Contamines/​Hauteluce,Les Contamines-Montjoie,France,6.72751,45.8210905,3.8 out of 5 stars,1164 m - 2437 m (Difference 1273 m),120.0,40.0,60.0,20.0,24.0,0,4,8,12,0
Ski resort Espace Villard Corrençon – Villard-de-Lans/​Corrençon-en-Vercors,Corrençon-en-Vercors,France,5.5272737,45.031815,3.8 out of 5 stars,1050 m - 2050 m (Difference 1000 m),125.0,50.0,50.0,25.0,19.0,0,2,6,10,0
Ski resort Les 7 Laux – Prapoutel/​Le Pleynet/​Pipay,Prapoutel,France,5.9954353,45.2567786,3.8 out of 5 stars,1350 m - 2400 m (Difference 1050 m),120.0,46.0,36.0,38.0,22.0,0,0,8,13,0
Ski resort Espace Lumière – Pra Loup/​Val d’Allos,Pra Loup,France,6.6027579,44.3697585,3.8 out of 5 stars,(1500 m  -) 1608 m - 2576 m (Difference 968 m),180.0,56.0,93.5,30.5,36.0,0,2,12,16,0
Ski resort La Clusaz/​Manigod,La Clusaz,France,6.4239011,45.9043659,3.8 out of 5 stars,1050 m - 2485 m (Difference 1435 m),125.0,67.0,42.0,16.0,49.0,1,4,14,27,0
Ski resort Zoncolan – Ravascletto/​Sutrio,Ravascletto,Italy,12.9221152,46.5229362,3.8 out of 5 stars,900 m - 1970 m (Difference 1070 m),23.0,9.0,10.0,4.0,11.0,1,0,5,1,4
Ski resort Lindvallen/​Högfjället (Sälen),Lindvallen,Sweden,13.193609,61.159705,3.8 out of 5 stars,579 m - 887 m (Difference 308 m),42.0,22.0,17.0,3.0,50.0,0,0,4,46,0
Ski resort Garmisch-Classic – Garmisch-Partenkirchen,Garmisch-Partenkirchen,Germany,11.0962815,47.4923741,3.8 out of 5 stars,740 m - 2050 m (Difference 1310 m),40.0,12.0,18.0,10.0,18.0,2,2,4,7,2
Ski resort Meiringen-Hasliberg,Hasliberg,Switzerland,8.2052569,46.7379056,3.8 out of 5 stars,(600 m  -) 1065 m - 2433 m (Difference 1368 m),60.0,20.0,34.0,6.0,13.0,1,4,4,4,0
Ski resort Bad Kleinkirchheim,Bad Kleinkirchheim,Austria,13.7983599,46.8144214,3.8 out of 5 stars,1087 m - 2055 m (Difference 968 m),103.0,18.0,77.0,8.0,22.0,0,4,8,9,0
Ski resort Brandnertal – Brand/​Bürserberg,Brand,Austria,9.721095133600434,47.08761615,3.8 out of 5 stars,904 m - 2000 m (Difference 1096 m),47.6,23.0,23.3,1.3,15.0,1,2,6,5,1
Ski resort Schilthorn – Mürren/​Lauterbrunnen,Mürren,Switzerland,7.8929321,46.5594576,3.7 out of 5 stars,796 m - 2970 m (Difference 2174 m),54.0,19.0,23.0,12.0,17.0,6,0,7,2,0
Ski resort Flachauwinkl/​Kleinarl (Shuttleberg),Kleinarl,Austria,13.33168609534533,47.2305949,3.7 out of 5 stars,1000 m - 1980 m (Difference 980 m),28.0,19.0,7.0,2.0,10.0,0,1,7,0,0
Ski resort Val Senales Glacier (Schnalstaler Gletscher),Kurzras (Maso Corto),Italy,10.7827459,46.7565098,3.7 out of 5 stars,2011 m - 3212 m (Difference 1201 m),42.0,10.0,18.0,14.0,11.0,1,1,5,4,0
Ski resort Pfelders (Moos in Passeier),Pfelders (Plan),Italy,11.0895074,46.7952778,3.7 out of 5 stars,1601 m - 2502 m (Difference 901 m),18.0,5.0,9.0,4.0,4.0,0,0,1,2,0
Ski resort Ifen,Riezlern,Austria,10.188329,47.3593581,3.7 out of 5 stars,1270 m - 2030 m (Difference 760 m),22.6,12.0,6.9,3.7,4.0,0,2,1,1,0
Ski resort Christlum – Achenkirch,Achenkirch,Austria,11.7056026,47.5276244,3.7 out of 5 stars,950 m - 1800 m (Difference 850 m),27.0,6.0,16.0,5.0,10.0,0,0,4,4,0
Ski resort Grand Tourmalet/​Pic du Midi – La Mongie/​Barèges,La Mongie,France,-1.3330366,47.0306867,3.7 out of 5 stars,1250 m - 2500 m (Difference 1250 m),100.0,58.0,35.0,7.0,30.0,3,0,15,12,0
Ski resort Sulden am Ortler (Solda all'Ortles),Sulden (Solda),Italy,10.5842617,46.5280433,3.7 out of 5 stars,1900 m - 3250 m (Difference 1350 m),44.0,17.0,13.0,14.0,11.0,2,2,5,1,0
Ski resort Hovden,Hovden i Setesdal,Norway,7.356017,59.5602422,3.7 out of 5 stars,763 m - 1183 m (Difference 420 m),42.5,23.1,17.7,1.7,9.0,0,0,3,5,0
Ski resort Sudelfeld – Bayrischzell,Bayrischzell,Germany,12.0148837,47.6737001,3.7 out of 5 stars,850 m - 1563 m (Difference 713 m),31.2,7.7,18.7,4.8,13.0,0,0,5,8,0
Ski resort Kaunertal Glacier (Kaunertaler Gletscher),Feichten,Austria,10.7460451,47.0289861,3.7 out of 5 stars,2150 m - 3113 m (Difference 963 m),55.0,22.5,19.0,13.5,7.0,1,2,2,2,0
Ski resort Diedamskopf – Schoppernau,Schoppernau,Austria,10.0150897,47.3133602,3.7 out of 5 stars,820 m - 2060 m (Difference 1240 m),40.0,13.0,18.0,9.0,9.0,0,2,2,4,1
Ski resort Crans-Montana,Crans,Switzerland,6.2058302,46.3579285,3.7 out of 5 stars,(540 m  -) 1510 m - 2927 m (Difference 1417 m),140.0,55.0,70.0,15.0,19.0,0,4,6,8,0
Ski resort Grosseck/​Speiereck – Mauterndorf/​St. Michael,Sankt Michael im Lungau,Austria,13.6099103445197,47.1154536,3.7 out of 5 stars,1095 m - 2400 m (Difference 1305 m),50.0,26.0,17.0,7.0,10.0,0,2,4,4,0
Ski resort Söllereck – Oberstdorf,Oberstdorf,Germany,10.2792549,47.4193767,3.7 out of 5 stars,820 m - 1450 m (Difference 630 m),14.0,7.9,5.4,0.7,7.0,0,1,1,2,3
Ski resort Nebelhorn – Oberstdorf,Oberstdorf,Germany,10.2792549,47.4193767,3.7 out of 5 stars,828 m - 2224 m (Difference 1396 m),12.9,2.8,5.1,5.0,6.0,1,2,2,1,0
Ski resort Oberjoch (Bad Hindelang) – Iseler,Oberjoch,Germany,10.4063763,47.5163566,3.7 out of 5 stars,1130 m - 1559 m (Difference 429 m),32.0,6.0,24.0,2.0,5.0,0,0,4,1,0
Ski resort Madrisa (Davos Klosters),Klosters,Switzerland,9.8750678,46.8829097,3.7 out of 5 stars,1142 m - 2602 m (Difference 1460 m),22.9,6.2,9.2,7.5,8.0,0,1,2,4,1
Ski resort Špindlerův Mlýn,Špindlerův Mlýn,Czech Republic,15.6067567,50.7256448,3.7 out of 5 stars,702 m - 1235 m (Difference 533 m),27.8,10.0,15.9,1.9,17.0,0,0,6,11,0
Ski resort Borovets,Borovets (Боровец),Bulgaria,25.3697814,41.6386553,3.7 out of 5 stars,1315 m - 2550 m (Difference 1235 m),58.0,24.0,29.0,5.0,13.0,0,1,4,8,0
Ski resort Kappl,Kappl,Austria,10.3755315,47.0633793,3.7 out of 5 stars,1180 m - 2690 m (Difference 1510 m),42.0,15.0,22.0,5.0,10.0,0,1,3,2,4
Ski resort Catinaccio/​Ciampedie – Vigo di Fassa/​Pera di Fassa,Vigo di Fassa,Italy,11.6726135,46.4204045,3.7 out of 5 stars,1322 m - 2095 m (Difference 773 m),13.5,6.4,6.2,0.9,6.0,1,0,5,0,0
Ski resort Dundret Lapland – Gällivare,Gällivare,Sweden,20.25,67.3,3.7 out of 5 stars,420 m - 750 m (Difference 330 m),12.0,6.0,3.0,3.0,5.0,0,0,1,3,0
Ski resort Gargellen,Gargellen,Austria,9.9187223,46.9721035,3.7 out of 5 stars,1423 m - 2300 m (Difference 877 m),28.2,19.2,6.0,3.0,8.0,0,1,3,4,0
Ski resort Les Orres,Les Orres 1650,France,6.5510313,44.5140024,3.7 out of 5 stars,1550 m - 2720 m (Difference 1170 m),100.0,30.0,60.0,10.0,17.0,0,0,7,8,2
Ski resort Dévoluy – Superdévoluy/​La Joue du Loup,La Joue du Loup,France,5.8930366,44.6883952,3.7 out of 5 stars,1500 m - 2500 m (Difference 1000 m),100.0,55.0,35.0,10.0,21.0,0,0,5,15,0
Ski resort Moelltal Glacier (Mölltaler Gletscher),Innerfragant,Austria,13.0571772,46.9618273,3.7 out of 5 stars,(1220 m  -) 2108 m - 3122 m (Difference 1014 m),36.0,6.5,20.0,9.5,9.0,0,1,5,2,0
Ski resort Disentis,Sedrun,Switzerland,8.7762198,46.6809591,3.7 out of 5 stars,1227 m - 2833 m (Difference 1606 m),60.0,20.0,30.0,10.0,12.0,2,0,3,5,0
Ski resort Hörnerbahn – Bolsterlang,Bolsterlang,Germany,10.234344,47.4661646,3.7 out of 5 stars,894 m - 1665 m (Difference 771 m),17.0,8.0,7.0,2.0,5.0,0,1,2,2,0
Ski resort Jahorina,Jahorina,Bosnia and Herzegovina,18.59764133520705,43.722677950000005,3.7 out of 5 stars,1300 m - 1890 m (Difference 590 m),52.0,25.0,24.0,3.0,18.0,0,2,5,5,4
Ski resort Brévent/​Flégère (Chamonix),Chamonix-Mont-Blanc,France,6.8727506,45.9246705,3.7 out of 5 stars,1030 m - 2525 m (Difference 1495 m),56.0,11.0,25.0,20.0,17.0,2,2,8,4,0
Ski resort Schwemmalm,Kuppelwies,Italy,10.9592684,46.531114,3.7 out of 5 stars,(1150 m  -) 1505 m - 2625 m (Difference 1120 m),25.1,7.1,14.3,3.7,5.0,0,1,3,1,0
Ski resort Pal/​Arinsal – La Massana,Arinsal,Andorra,1.4844029,42.5720821,3.7 out of 5 stars,(1230 m  -) 1550 m - 2537 m (Difference 987 m),63.0,31.0,24.0,8.0,31.0,1,2,12,7,0
Ski resort Meran 2000,Meran (Merano),Italy,11.1594185,46.6695547,3.7 out of 5 stars,(648 m  -) 1609 m - 2350 m (Difference 741 m),40.0,12.0,25.0,3.0,8.0,1,3,4,0,0
Ski resort Isola 2000,Isola 2000,France,7.145441205329339,44.1869246,3.7 out of 5 stars,1800 m - 2603 m (Difference 803 m),120.0,75.0,35.0,10.0,20.0,0,2,7,8,0
Ski resort Arber,Bodenmais,Germany,13.0996367,49.0668258,3.7 out of 5 stars,1050 m - 1456 m (Difference 406 m),11.5,4.5,4.0,3.0,6.0,0,1,2,3,0
Ski resort Les Houches/​Saint-Gervais – Prarion/​Bellevue (Chamonix),Les Houches,France,6.799138,45.891508,3.7 out of 5 stars,(584 m  -) 1000 m - 1900 m (Difference 900 m),55.0,25.0,25.0,5.0,15.0,1,1,8,3,0
Ski resort Lachtal,Lachtal,Austria,14.3682392,47.2524874,3.7 out of 5 stars,1600 m - 2222 m (Difference 622 m),26.2,7.2,16.0,3.0,10.0,0,0,2,6,1
Ski resort Bardonecchia,Bardonecchia,Italy,6.703205,45.078339,3.6 out of 5 stars,1312 m - 2800 m (Difference 1488 m),100.0,54.0,38.0,8.0,22.0,0,1,10,6,0
Ski resort Orcières Merlette 1850,Orcières-Merlette,France,6.3235516,44.6972064,3.6 out of 5 stars,1850 m - 2725 m (Difference 875 m),100.0,18.0,68.0,14.0,28.0,0,0,6,16,0
Ski resort Reinswald (San Martino in Sarentino),Reinswald (San Martino in Sarentino),Italy,11.4166506,46.6888931,3.6 out of 5 stars,1570 m - 2460 m (Difference 890 m),22.0,3.0,17.0,2.0,4.0,0,1,1,2,0
Ski resort Kolašin 1450/​Kolašin 1600,Kolašin,Montenegro,19.5218005,42.8238387,3.6 out of 5 stars,1420 m - 2072 m (Difference 652 m),45.0,20.0,20.0,5.0,8.0,0,0,4,3,0
Ski resort Skeikampen – Gausdal,Skei,Norway,10.0897633,61.337194,3.6 out of 5 stars,779 m - 1115 m (Difference 336 m),21.0,8.0,11.0,2.0,11.0,0,0,2,7,2
Ski resort Grossglockner Heiligenblut,Heiligenblut am Großglockner,Austria,12.8421104,47.0392667,3.6 out of 5 stars,1301 m - 2989 m (Difference 1688 m),47.0,17.0,29.0,1.0,10.0,1,3,1,4,0
Ski resort Pamporovo,Pamporovo,Bulgaria,24.6948671,41.6517608,3.6 out of 5 stars,1473 m - 1926 m (Difference 453 m),29.8,17.8,7.6,4.4,13.0,0,0,7,3,2
Ski resort Zettersfeld – Lienz,Lienz,Austria,12.51192976286156,46.904632,3.6 out of 5 stars,(728 m  -) 1660 m - 2278 m (Difference 618 m),21.0,7.9,11.5,1.6,6.0,0,1,3,2,0
Ski resort Vogel – Bohinj,Ukanc,Slovenia,13.8299754,46.2792903,3.6 out of 5 stars,569 m - 1800 m (Difference 1231 m),22.0,9.5,12.5,0.0,9.0,1,1,3,3,1
Ski resort Chamrousse,Chamrousse 1650 - Le Recoin,France,5.8769694,45.126209,3.6 out of 5 stars,1400 m - 2250 m (Difference 850 m),90.0,45.0,35.0,10.0,16.0,0,1,7,7,1
Ski resort Alto Sangro – Roccaraso/​Rivisondoli,Aremogna,Italy,14.0364822,41.824292,3.6 out of 5 stars,1309 m - 2141 m (Difference 832 m),90.5,37.0,32.6,20.9,24.0,0,6,9,8,0
Ski resort Le Grand Bornand,Le Grand Bornand,France,6.4271457,45.9418675,3.6 out of 5 stars,1000 m - 2100 m (Difference 1100 m),90.0,57.0,24.0,9.0,25.0,0,2,10,11,0
Ski resort Rosa Khutor,Rosa Khutor (Роза Хутор),Southern Russia,40.2970765,43.6709708,3.6 out of 5 stars,(560 m  -) 940 m - 2509 m (Difference 1569 m),102.0,62.0,24.0,16.0,27.0,0,10,11,2,0
Ski resort Auron (Saint-Etienne-de-Tinée),Auron,France,6.9309839,44.2262702,3.6 out of 5 stars,(1150 m  -) 1600 m - 2450 m (Difference 850 m),135.0,58.0,45.0,32.0,16.0,2,1,9,3,0
Ski resort Gemsstock – Andermatt,Andermatt,Switzerland,8.5948148,46.6340499,3.6 out of 5 stars,1444 m - 2961 m (Difference 1517 m),31.0,0.0,14.0,17.0,4.0,2,0,1,1,0
Ski resort Grüsch Danusa,Grüsch,Switzerland,9.6471438,46.9791866,3.6 out of 5 stars,600 m - 1800 m (Difference 1200 m),34.0,8.0,20.0,6.0,6.0,0,2,1,3,0
Ski resort Zuoz – Pizzet/​Albanas,Zuoz,Switzerland,9.9608039,46.6012885,3.6 out of 5 stars,1720 m - 2465 m (Difference 745 m),15.0,9.0,3.0,3.0,5.0,0,0,3,1,0
Ski resort Rosshütte – Seefeld,Seefeld in Tirol,Austria,11.1867187,47.3289241,3.6 out of 5 stars,1230 m - 2064 m (Difference 834 m),19.1,11.2,6.0,1.9,12.0,2,0,3,2,3
Ski resort Vemdalsskalet,Vemdalsskalet,Sweden,13.9740015,62.4830712,3.6 out of 5 stars,592 m - 946 m (Difference 354 m),18.0,5.0,8.0,5.0,12.0,0,0,4,6,2
Ski resort Patscherkofel – Innsbruck-Igls,Innsbruck,Austria,11.3927685,47.2654296,3.6 out of 5 stars,1009 m - 1965 m (Difference 956 m),19.0,5.0,10.0,4.0,6.0,0,1,0,3,1
Ski resort Hoch-Imst – Imst,Hoch-Imst,Austria,10.7244774,47.2401085,3.6 out of 5 stars,1053 m - 2026 m (Difference 973 m),10.3,2.6,5.8,1.9,4.0,0,2,0,1,0
Ski resort Brauneck – Lenggries/​Wegscheid,Lenggries,Germany,11.5763967,47.6831625,3.6 out of 5 stars,700 m - 1712 m (Difference 1012 m),30.7,3.5,20.7,6.5,15.0,0,1,4,10,0
Ski resort Szczyrk Mountain Resort,Szczyrk,Poland,19.0254613,49.7165976,3.6 out of 5 stars,524 m - 1257 m (Difference 733 m),36.6,22.4,9.8,4.4,10.0,0,1,6,3,0
Ski resort Sportgastein,Bad Gastein,Austria,13.16085298508295,47.0871124,3.6 out of 5 stars,1585 m - 2650 m (Difference 1065 m),18.2,3.5,13.2,1.5,3.0,0,2,0,1,0
Ski resort Mönichkirchen/​Mariensee,Mönichkirchen,Austria,16.0361905,47.5120788,3.6 out of 5 stars,865 m - 1432 m (Difference 567 m),13.5,5.5,6.0,2.0,5.0,0,0,3,1,0
Ski resort Diavolezza/​Lagalb,Pontresina,Switzerland,9.9042965,46.489993,3.6 out of 5 stars,2093 m - 3006 m (Difference 913 m),35.0,0.0,27.0,8.0,5.0,2,0,1,0,0
Ski resort Savognin,Savognin,Switzerland,9.5980124,46.5969026,3.6 out of 5 stars,1168 m - 2713 m (Difference 1545 m),73.5,32.5,38.0,3.0,12.0,0,2,1,6,3
Ski resort Mondolè Ski – Artesina/​Frabosa Soprana/​Prato Nevoso,Prato Nevoso,Italy,7.7855885,44.2552915,3.6 out of 5 stars,(803 m  -) 807 m - 2085 m (Difference 1278 m),105.0,42.7,51.0,11.6,25.0,0,1,14,4,6
Ski resort Villars/​Gryon/​Les Diablerets,Bretaye,Switzerland,7.0733557,46.3200336,3.5 out of 5 stars,1224 m - 2120 m (Difference 896 m),84.0,43.0,38.0,3.0,25.0,0,3,8,13,0
Ski resort Pila,Pila,Italy,8.0810802,45.7699441,3.5 out of 5 stars,(570 m  -) 1540 m - 2740 m (Difference 1200 m),70.0,11.0,51.0,8.0,12.0,1,4,7,0,0
Ski resort Ax 3 Domaines – Ax-les-Thermes,Ax-les-Thermes,France,1.8379765,42.7193597,3.5 out of 5 stars,(715 m  -) 1380 m - 2346 m (Difference 966 m),80.0,40.0,25.0,15.0,19.0,0,2,7,7,0
Ski resort Feldberg – Seebuck/​Grafenmatt/​Fahl,Feldberg,Germany,8.070282231665601,47.86345025,3.5 out of 5 stars,950 m - 1450 m (Difference 500 m),29.0,12.5,10.0,6.5,17.0,0,0,5,9,3
Ski resort Ordino Arcalís,L'Hortell,Andorra,1.504417,42.6239824,3.5 out of 5 stars,1940 m - 2625 m (Difference 685 m),30.0,13.0,14.0,3.0,15.0,0,1,4,6,1
Ski resort Splügen – Tambo,Splügen,Switzerland,9.3234097,46.553071,3.5 out of 5 stars,1484 m - 2215 m (Difference 731 m),30.0,12.0,12.0,6.0,7.0,0,2,2,1,0
Ski resort Grands Montets – Argentière (Chamonix),Argentière,France,6.9298616,45.9838402,3.5 out of 5 stars,1252 m - 2765 m (Difference 1513 m),29.0,6.0,9.0,14.0,7.0,0,2,3,2,0
Ski resort Hochkössen (Unterberghorn) – Kössen,Thurnbichl,Austria,12.417954,47.6564849,3.5 out of 5 stars,613 m - 1688 m (Difference 1075 m),22.7,10.5,9.2,3.0,11.0,0,1,3,4,2
Ski resort Malbun,Malbun,Liechtenstein,9.6083069,47.102619,3.5 out of 5 stars,1600 m - 2000 m (Difference 400 m),23.0,11.0,9.0,3.0,7.0,0,0,3,2,0
Ski resort Goldeck – Spittal an der Drau,Spittal an der Drau,Austria,13.4963308,46.7982211,3.5 out of 5 stars,547 m - 2142 m (Difference 1595 m),25.0,11.5,8.0,5.5,6.0,0,1,2,2,1
Ski resort Galsterberg – Pruggern,Michaelerberg-Pruggern,Austria,13.883338817569491,47.385314050000005,3.5 out of 5 stars,1142 m - 1984 m (Difference 842 m),11.2,4.1,6.6,0.5,5.0,0,1,1,2,1
Ski resort Bormio – Cima Bianca,Bormio,Italy,10.3721712,46.4692482,3.5 out of 5 stars,1200 m - 3017 m (Difference 1817 m),50.0,14.0,34.0,2.0,14.0,1,1,5,3,4
Ski resort Nesselwang – Alpspitze (Alpspitzbahn),Nesselwang,Germany,10.5003482,47.6218885,3.5 out of 5 stars,900 m - 1463 m (Difference 563 m),8.0,6.0,2.0,0.0,6.0,0,0,0,3,0
Ski resort Gaustablikk – Rjukan,Gaustablikk,Norway,8.733238821734151,59.88368695,3.5 out of 5 stars,702 m - 1252 m (Difference 550 m),35.0,21.0,10.0,4.0,14.0,0,0,2,10,1
Ski resort Vent,Vent,Austria,10.9146696,46.8600108,3.5 out of 5 stars,1900 m - 2646 m (Difference 746 m),15.0,5.0,10.0,0.0,4.0,0,0,2,2,0
Ski resort Puy-Saint-Vincent,Puy-Saint-Vincent Station 1600,France,6.4869856,44.8187943,3.5 out of 5 stars,1407 m - 2677 m (Difference 1270 m),75.0,28.0,34.0,13.0,11.0,0,0,8,3,0
Ski resort Eggli/​La Videmanette – Gstaad/​Saanen/​Rougemont,Gstaad,Switzerland,7.2873587,46.4761004,3.5 out of 5 stars,992 m - 2151 m (Difference 1159 m),58.0,35.2,17.4,5.4,9.0,1,2,3,3,0
Ski resort Les Portes du Mont-Blanc – Combloux/​Megève le Jaillet/​La Giettaz,Megève,France,6.617932,45.8567089,3.5 out of 5 stars,1113 m - 1835 m (Difference 722 m),85.0,28.0,50.0,7.0,22.0,0,1,8,13,0
Ski resort Valfréjus,Valfréjus,France,6.65726752475438,45.162254,3.5 out of 5 stars,1550 m - 2737 m (Difference 1187 m),70.0,40.0,20.0,10.0,9.0,0,1,4,3,0
Ski resort Krvavec,Cerklje na Gorenjskem,Slovenia,14.4872011,46.2525083,3.5 out of 5 stars,(602 m  -) 1450 m - 1971 m (Difference 521 m),30.0,7.0,15.0,8.0,13.0,0,1,7,3,2
Ski resort Spitzingsee-Tegernsee,Spitzingsee,Germany,11.885265363733344,47.66512235,3.5 out of 5 stars,980 m - 1580 m (Difference 600 m),14.2,1.7,8.2,4.3,10.0,0,0,3,5,0
Ski resort Rifflsee,Mandarfen,Austria,10.8709624,46.9687229,3.5 out of 5 stars,1640 m - 2800 m (Difference 1160 m),26.0,6.0,13.0,7.0,6.0,0,1,3,2,0
Ski resort Watles – Malles Venosta (Mals),Prämajur,Italy,10.5074286,46.7015738,3.5 out of 5 stars,1750 m - 2520 m (Difference 770 m),10.0,4.0,5.0,1.0,3.0,0,0,2,1,0
Ski resort Werfenweng,Werfenweng,Austria,13.2567806,47.4615532,3.5 out of 5 stars,902 m - 1834 m (Difference 932 m),29.0,13.0,15.0,1.0,9.0,0,2,2,4,1
Ski resort Weissee Gletscherwelt – Uttendorf,Enzingerboden,Austria,12.6261478,47.1714745,3.5 out of 5 stars,1482 m - 2600 m (Difference 1118 m),23.0,6.0,15.0,2.0,8.0,0,2,2,4,0
Ski resort Rinerhorn (Davos Klosters),Davos-Platz,Switzerland,9.8210273,46.7917679,3.5 out of 5 stars,1459 m - 2490 m (Difference 1031 m),51.5,15.6,23.1,12.8,7.0,0,1,0,6,0
Ski resort Venet – Landeck/​Zams/​Fliess,Zams,Austria,10.5890562,47.1582937,3.5 out of 5 stars,780 m - 2212 m (Difference 1432 m),16.0,0.0,15.0,1.0,6.0,1,0,2,3,0
Ski resort Mount Parnassos – Fterolakka/​Kellaria,Arachova,Greece,22.5841959,38.4800715,3.5 out of 5 stars,1581 m - 2250 m (Difference 669 m),23.4,16.9,6.5,0.0,17.0,0,2,2,6,1
Ski resort Tatranská Lomnica,Tatranská Lomnica,Slovakia,20.280602,49.1645786,3.5 out of 5 stars,888 m - 2190 m (Difference 1302 m),11.8,5.4,5.2,1.2,9.0,1,2,4,1,1
Ski resort Ramsau am Dachstein – Rittisberg,Ramsau am Dachstein,Austria,13.6531171,47.4217532,3.4 out of 5 stars,1035 m - 1636 m (Difference 601 m),12.9,7.7,4.2,1.0,8.0,0,0,0,6,0
Ski resort Walmendingerhorn/​Heuberg – Mittelberg/​Hirschegg,Mittelberg,Austria,10.1544534,47.3240997,3.4 out of 5 stars,1070 m - 1946 m (Difference 876 m),33.7,19.5,11.9,2.3,13.0,1,0,4,6,0
Ski resort Valberg/​Beuil les Launes,Valberg,France,6.9301384,44.0956228,3.4 out of 5 stars,1412 m - 2020 m (Difference 608 m),90.0,45.0,35.0,10.0,23.0,0,0,7,13,0
Ski resort La Norma,La Norma,France,6.7195245,45.1772565,3.4 out of 5 stars,1350 m - 2750 m (Difference 1400 m),65.0,17.0,43.0,5.0,13.0,0,1,5,6,0
Ski resort Zugspitze,Grainau,Germany,11.0259498,47.4753212,3.4 out of 5 stars,(700 m  -) 2000 m - 2720 m (Difference 720 m),20.0,7.0,13.0,0.0,10.0,3,0,2,4,0
Ski resort Muttereralm – Mutters/​Götzens,Götzens,Austria,11.3110357,47.2359336,3.4 out of 5 stars,897 m - 1804 m (Difference 907 m),16.4,6.8,8.6,1.0,6.0,0,2,1,1,2
Ski resort Grächen,Grächen,Switzerland,7.8421612,46.1960178,3.4 out of 5 stars,1619 m - 2864 m (Difference 1245 m),44.0,9.0,33.0,2.0,11.0,0,1,5,5,0
Ski resort Wurzeralm – Spital am Pyhrn,Spital am Pyhrn,Austria,14.3401869,47.6646136,3.4 out of 5 stars,810 m - 1870 m (Difference 1060 m),22.5,10.5,10.0,2.0,8.0,0,0,2,3,1
Ski resort Lavarone,Lavarone,Italy,11.2880019,45.9445551,3.4 out of 5 stars,1174 m - 1600 m (Difference 426 m),30.4,22.4,6.0,2.0,14.0,0,0,6,2,6
Ski resort Riksgränsen,Riksgränsen,Sweden,18.1207193,68.4266175,3.4 out of 5 stars,520 m - 909 m (Difference 389 m),21.0,10.0,10.0,1.0,6.0,0,0,2,4,0
Ski resort Anzère,Anzère,Switzerland,7.3989488,46.2970711,3.4 out of 5 stars,1516 m - 2420 m (Difference 904 m),58.0,12.0,37.0,9.0,13.0,0,1,4,5,3
Ski resort Aprica,Aprica,Italy,10.151656,46.152697,3.4 out of 5 stars,1162 m - 2270 m (Difference 1108 m),50.0,26.9,15.4,7.7,11.0,0,2,4,5,0
Ski resort Bukovel,Bukovel,Ukraine,24.41283,48.353783,3.4 out of 5 stars,859 m - 1372 m (Difference 513 m),68.0,29.0,28.0,11.0,19.0,0,0,16,3,0
Ski resort Aussois,Aussois,France,6.7413988,45.2275415,3.4 out of 5 stars,1500 m - 2750 m (Difference 1250 m),55.0,30.0,22.0,3.0,8.0,0,0,4,4,0
Ski resort Oslo – Tryvann (Skimore),Oslo,Norway,10.7389701,59.9133301,3.3 out of 5 stars,150 m - 531 m (Difference 381 m),9.3,3.4,4.6,1.3,10.0,0,0,3,4,3
Ski resort Fanningberg,Weißpriach,Austria,13.7025238,47.176786,3.3 out of 5 stars,1497 m - 2115 m (Difference 618 m),24.0,11.1,5.8,7.1,5.0,0,0,2,3,0
Ski resort Balderschwang – Hochschelpen/​Riedberger Horn,Balderschwang,Germany,10.0951051,47.4701391,3.3 out of 5 stars,1000 m - 1500 m (Difference 500 m),41.0,15.9,14.2,10.9,13.0,0,0,3,8,0
Ski resort Jöchelspitze – Bach,Bach,Austria,10.412906117436808,47.24407375,3.3 out of 5 stars,1200 m - 1768 m (Difference 568 m),5.0,2.5,2.5,0.0,2.0,0,1,0,0,0
Ski resort Ankogel – Mallnitz,Mallnitz,Austria,13.1706177,46.9886869,3.3 out of 5 stars,1266 m - 2636 m (Difference 1370 m),12.8,2.8,5.0,5.0,5.0,2,0,0,3,0
Ski resort Ochsenkopf,Bischofsgrün,Germany,11.7961871,50.0525984,3.3 out of 5 stars,659 m - 1024 m (Difference 365 m),4.7,2.4,2.3,0.0,4.0,0,2,0,0,0
Ski resort Hahnenkamm – Höfen/​Reutte,Reutte,Austria,10.7187955,47.4891092,3.3 out of 5 stars,854 m - 1900 m (Difference 1046 m),16.8,2.0,12.0,2.8,4.0,0,1,1,1,0
Ski resort Tärnaby,Tärnaby,Sweden,15.2765436,65.7114465,3.3 out of 5 stars,439 m - 789 m (Difference 350 m),20.0,10.0,9.0,1.0,5.0,0,0,1,4,0
Ski resort Donovaly (Park Snow),Donovaly,Slovakia,19.22813982088337,48.87898595,3.3 out of 5 stars,914 m - 1361 m (Difference 447 m),11.0,5.0,5.9,0.1,23.0,0,0,1,13,8
Ski resort Hochrindl – Sirnitz,Hochrindl,Austria,13.9941599,46.8599522,3.3 out of 5 stars,1470 m - 1832 m (Difference 362 m),20.6,5.4,11.4,3.8,7.0,0,0,1,5,0
Ski resort Riserva Bianca – Limone Piemonte,Panice Soprana,Italy,7.5690485,44.1699393,3.3 out of 5 stars,1046 m - 2060 m (Difference 1014 m),52.0,7.0,28.0,17.0,15.0,0,1,10,2,0
Ski resort Valchiavenna – Madesimo/​Campodolcino,Madesimo,Italy,9.3584136,46.4362982,3.3 out of 5 stars,(1082 m  -) 1550 m - 2948 m (Difference 1398 m),37.0,15.0,19.0,3.0,10.0,0,1,8,0,0
Ski resort Chäserrugg – Unterwasser/​Alt St. Johann (Toggenburg),Unterwasser,Switzerland,9.3089893,47.197779,3.3 out of 5 stars,900 m - 2262 m (Difference 1362 m),50.0,8.0,40.0,2.0,12.0,1,2,1,3,0
Ski resort Arêches (Beaufort),Arêches,France,6.564788220697249,45.68789485,3.3 out of 5 stars,1080 m - 2300 m (Difference 1220 m),50.0,15.0,20.0,15.0,14.0,0,1,4,8,0
Ski resort Gålå,Gålå,Norway,9.7847118,61.5058146,3.3 out of 5 stars,775 m - 1148 m (Difference 373 m),20.0,15.0,4.0,1.0,8.0,0,0,1,6,0
Ski resort Ounasvaara – Rovaniemi,Rovaniemi,Finland,25.73122,66.5025657,3.3 out of 5 stars,80 m - 215 m (Difference 135 m),6.0,3.1,1.7,1.2,5.0,0,0,1,2,1
Ski resort Białka Tatrzańska – Kotelnica/​Kaniówka/​Bania,Białka Tatrzańska,Poland,20.1050528,49.3946417,3.3 out of 5 stars,704 m - 938 m (Difference 234 m),21.3,17.3,4.0,0.0,21.0,0,0,9,9,0
Ski resort Laterns – Gapfohl,Laterns,Austria,9.7029357,47.2659118,3.3 out of 5 stars,1040 m - 1785 m (Difference 745 m),27.0,8.0,15.0,4.0,5.0,0,0,2,3,0
Ski resort Bürchen/​Törbel – Moosalp,Bürchen,Switzerland,7.8163191,46.2805676,3.3 out of 5 stars,1476 m - 2532 m (Difference 1056 m),25.0,5.0,15.0,5.0,8.0,0,0,1,6,0
Ski resort Grebenzen – St. Lambrecht,Sankt Lambrecht,Austria,14.2990842,47.072029,3.3 out of 5 stars,1010 m - 1870 m (Difference 860 m),12.2,2.9,9.0,0.3,9.0,0,1,1,5,1
Indoor ski area Alpenpark Neuss,Grefrath (Neuss),Germany,6.6337798,51.1725168,3.3 out of 5 stars,60 m - 110 m (Difference 50 m),0.4,0.3,0.1,0.0,6.0,0,0,1,2,3
Ski resort Jochgrimm (Passo Oclini),Jochgrimm (Passo Oclini),Italy,11.4515353,46.3473164,3.3 out of 5 stars,1838 m - 2223 m (Difference 385 m),7.0,3.0,3.5,0.5,4.0,0,0,2,2,0
Ski resort Fjällby – Björkliden,Björkliden,Sweden,18.4929045,64.3267467,3.3 out of 5 stars,420 m - 920 m (Difference 500 m),15.0,6.0,7.0,2.0,5.0,0,0,0,5,0
Ski resort Grasgehren – Bolgengrat,Obermaiselstein,Germany,10.2375098,47.4478874,3.3 out of 5 stars,1438 m - 1655 m (Difference 217 m),11.0,2.5,8.5,0.0,5.0,0,0,1,3,0
Ski resort Saint Luc/​Chandolin (Anniviers),Chandolin,Switzerland,7.5986698,46.2525826,3.3 out of 5 stars,1680 m - 2980 m (Difference 1300 m),60.0,20.0,30.0,10.0,15.0,0,0,3,8,3
Ski resort Arkhyz,Arkhyz Resort (Курорт Архыз),North Caucasus,,,3.3 out of 5 stars,1650 m - 2840 m (Difference 1190 m),26.6,16.4,6.4,3.8,8.0,0,4,4,0,0
Ski resort Cimone – Montecreto/​Sestola/​Le Polle,Passo del Lupo,Italy,13.62611,43.5423961,3.3 out of 5 stars,900 m - 1976 m (Difference 1076 m),50.0,15.0,25.0,10.0,19.0,1,0,12,0,0
Ski resort Betelberg – Lenk,Lenk im Simmental,Switzerland,7.443842,46.4580413,3.3 out of 5 stars,1083 m - 2001 m (Difference 918 m),42.0,21.7,19.4,0.9,11.0,0,2,2,4,1
Ski resort Oppdal,Oppdal,Norway,9.62330412000998,62.53517845,3.3 out of 5 stars,585 m - 1330 m (Difference 745 m),56.0,40.0,7.0,9.0,16.0,0,0,4,11,1
Ski resort Leysin,Aigle,Switzerland,6.9688929,46.3179006,3.3 out of 5 stars,1250 m - 2198 m (Difference 948 m),60.0,43.0,15.0,2.0,12.0,0,1,6,0,1
Ski resort Super Sauze,Le Sauze,France,4.2290845,45.3697062,3.3 out of 5 stars,1400 m - 2450 m (Difference 1050 m),65.0,35.0,20.0,10.0,21.0,0,0,3,18,0
Ski resort Courmayeur – Chécrouit/​Val Veny,Dolonne,Italy,6.9652008,45.7899627,3.3 out of 5 stars,1205 m - 2755 m (Difference 1550 m),41.5,16.0,21.5,4.0,18.0,4,2,8,3,1
Ski resort Sainte-Foy-Tarentaise,Sainte-Foy Station,France,0.2214330491595563,44.8368806,3.3 out of 5 stars,1550 m - 2620 m (Difference 1070 m),43.0,10.0,27.0,6.0,6.0,0,0,4,0,2
Ski resort Les Karellis,Les Karellis,France,6.4064649,45.2285712,3.3 out of 5 stars,1600 m - 2520 m (Difference 920 m),60.0,26.0,25.0,9.0,16.0,0,0,6,8,0
Ski resort Font-Romeu/​Bolquère Pyrénées 2000,Pyrénées 2000,France,2.059667,42.5210406,3.3 out of 5 stars,1717 m - 2213 m (Difference 496 m),58.0,30.0,19.0,9.0,22.0,0,1,9,10,2
Ski resort Melchsee-Frutt (Kerns),Melchsee-Frutt,Switzerland,8.271634234311342,46.77452445,3.3 out of 5 stars,1080 m - 2255 m (Difference 1175 m),36.0,20.0,6.0,10.0,15.0,1,1,4,3,2
Ski resort Fichtelberg – Oberwiesenthal,Oberwiesenthal,Germany,12.948936691898684,50.4355522,3.3 out of 5 stars,911 m - 1215 m (Difference 304 m),15.5,6.8,6.1,2.6,6.0,1,0,1,4,0
Ski resort Buchensteinwand (Pillersee) – St. Ulrich am Pillersee/​St. Jakob in Haus/​Hochfilzen,St. Jakob in Haus,Austria,12.5502397,47.498375,3.3 out of 5 stars,855 m - 1456 m (Difference 601 m),21.2,8.0,10.2,3.0,9.0,0,0,2,5,0
Ski resort Monte Popolo – Eben im Pongau,Eben im Pongau,Austria,13.39761695316136,47.4283237,3.3 out of 5 stars,875 m - 1601 m (Difference 726 m),6.0,4.0,2.0,0.0,4.0,0,0,2,1,0
Ski resort Feuerkogel – Ebensee,Ebensee,Austria,13.7741666,47.8122366,3.3 out of 5 stars,443 m - 1648 m (Difference 1205 m),10.6,6.5,3.1,1.0,8.0,1,1,1,4,0
Ski resort Winterberg (Skiliftkarussell),Winterberg,Germany,8.5338466,51.1930723,3.3 out of 5 stars,630 m - 820 m (Difference 190 m),27.5,14.0,12.0,1.5,24.0,0,0,14,3,4
Ski resort Keilberg (Klínovec),Loučná pod Klínovcem,Czech Republic,12.9814194,50.4188425,3.3 out of 5 stars,763 m - 1244 m (Difference 481 m),31.5,17.3,10.5,3.7,19.0,0,0,5,9,5
Ski resort Mitterdorf (Almberg) – Mitterfirmiansreut,Mitterfirmiansreut,Germany,13.6500874,48.8936502,3.3 out of 5 stars,841 m - 1139 m (Difference 298 m),5.0,2.5,1.9,0.6,6.0,0,0,1,4,0
Ski resort Charmey,Charmey,Switzerland,7.17930555186935,46.5961749,3.3 out of 5 stars,875 m - 1626 m (Difference 751 m),30.0,19.5,7.5,3.0,5.0,0,1,1,2,0
Ski resort Le Lioran,Super Lioran,France,2.7491802,45.083144,3.3 out of 5 stars,1160 m - 1850 m (Difference 690 m),60.0,30.0,20.0,10.0,19.0,1,0,8,6,0
Ski resort San Domenico – Alpe Ciamporino,Alpe Ciamporino,Italy,8.1944218,46.2605754,3.2 out of 5 stars,1420 m - 2500 m (Difference 1080 m),32.6,5.7,12.8,14.1,5.0,0,0,5,0,0
Ski resort St. Jean Montclar,Montclar,France,2.247705,43.1351201,3.2 out of 5 stars,1325 m - 2450 m (Difference 1125 m),50.0,25.0,20.0,5.0,10.0,0,0,3,7,0
Ski resort Vercorin,Vercorin,Switzerland,7.530704,46.2571655,3.2 out of 5 stars,(510 m  -) 1340 m - 2374 m (Difference 1034 m),35.0,13.0,19.0,3.0,10.0,1,2,1,4,0
Ski resort Krasnaya Polyana Resort,Krasnaya Polyana 960 (Красная поляна,Southern Russia,40.2627565,43.6701481,3.2 out of 5 stars,(540 m  -) 960 m - 2172 m (Difference 1212 m),30.0,7.5,20.0,2.5,13.0,0,4,7,2,0
Indoor ski area Snow Dome Bispingen,Bispingen,Germany,9.996472,53.0823032,3.2 out of 5 stars,82 m - 122 m (Difference 40 m),0.3,0.3,0.0,0.0,3.0,0,0,1,1,1
Indoor ski area SnowWorld Landgraaf,Landgraaf,Netherlands,6.0264604,50.9080845,3.2 out of 5 stars,150 m - 210 m (Difference 60 m),1.0,0.6,0.4,0.0,8.0,0,0,1,3,4
Ski resort Vals – Dachberg,Vals,Switzerland,9.1804954,46.6166848,3.2 out of 5 stars,1286 m - 2851 m (Difference 1565 m),25.0,5.0,15.0,5.0,6.0,0,1,0,3,0
Ski resort Lipno,Kramolín,Czech Republic,16.1318438,49.1342356,3.2 out of 5 stars,710 m - 900 m (Difference 190 m),13.5,10.9,2.1,0.5,8.0,0,0,4,0,4
Ski resort Santa Caterina Valfurva,Santa Caterina Valfurva,Italy,10.496566,46.4117021,3.2 out of 5 stars,1722 m - 2880 m (Difference 1158 m),20.5,1.4,15.5,3.6,5.0,0,2,1,2,0
Ski resort Jungholz,Jungholz,Austria,10.4470103,47.5735284,3.2 out of 5 stars,1058 m - 1500 m (Difference 442 m),10.0,7.0,3.0,0.0,7.0,0,0,2,4,0
Ski resort Nordkette – Innsbruck,Innsbruck,Austria,11.3927685,47.2654296,3.2 out of 5 stars,(560 m  -) 860 m - 2256 m (Difference 1396 m),13.9,0.5,13.0,0.4,6.0,2,0,2,0,0
Ski resort Gschwandtkopf – Seefeld,Seefeld in Tirol,Austria,11.1867187,47.3289241,3.2 out of 5 stars,1200 m - 1500 m (Difference 300 m),6.4,6.4,0.0,0.0,10.0,0,0,1,7,1
Ski resort Gazprom Mountain Resort,Esto-Sadok (Эсто-Садок),Southern Russia,40.2603962,43.6856443,3.2 out of 5 stars,(545 m  -) 949 m - 2256 m (Difference 1307 m),52.8,17.3,26.3,9.2,23.0,0,7,7,3,0
Ski resort Götschen – Bischofswiesen,Bischofswiesen,Germany,12.9628255,47.6510751,3.2 out of 5 stars,880 m - 1280 m (Difference 400 m),8.7,2.9,1.8,4.0,3.0,0,0,1,2,0
Ski resort Sörenberg – Rothorn/​Dorf,Sörenberg,Switzerland,8.0349311,46.8221657,3.2 out of 5 stars,1110 m - 2298 m (Difference 1188 m),42.0,24.0,10.0,8.0,14.0,1,1,3,8,1
Ski resort Kanin – Sella Nevea/​Bovec,Sella Nevea,Slovenia,13.4729398,46.387264,3.2 out of 5 stars,(460 m  -) 1103 m - 2292 m (Difference 1189 m),30.0,6.0,22.0,2.0,10.0,1,3,4,1,1
Ski resort Abetone/​Val di Luce,Val di Luce,Italy,10.6306384,44.1314375,3.2 out of 5 stars,1240 m - 1892 m (Difference 652 m),44.1,14.2,28.6,1.3,17.0,0,1,10,4,0
Ski resort Porté Puymorens,Porté Puymorens,France,1.833462,42.5488878,3.2 out of 5 stars,1617 m - 2470 m (Difference 853 m),50.0,21.0,20.0,9.0,10.0,0,0,4,5,0
Ski resort Mythenregion,Ibergeregg,Switzerland,8.7332101,47.0174278,3.2 out of 5 stars,(586 m  -) 1070 m - 1593 m (Difference 523 m),50.0,18.0,31.0,1.0,17.0,3,1,0,11,2
Ski resort Ovronnaz,Ovronnaz,Switzerland,7.1723377,46.1989846,3.2 out of 5 stars,1400 m - 2427 m (Difference 1027 m),30.0,5.0,20.0,5.0,7.0,0,0,4,2,0
Ski resort Le Seignus,Allos,France,6.6288511,44.2409317,3.2 out of 5 stars,1500 m - 2426 m (Difference 926 m),50.0,25.0,20.0,5.0,8.0,1,0,3,3,0
Ski resort Nara – Leontica,Leontica,Switzerland,8.9240977,46.4566629,3.2 out of 5 stars,925 m - 2123 m (Difference 1198 m),30.0,10.0,15.0,5.0,7.0,0,0,2,3,0
Ski resort Boí Taüll,La Vall de Boí,Spain,0.867563082949543,42.5428062,3.2 out of 5 stars,2035 m - 2751 m (Difference 716 m),45.0,9.5,21.7,13.8,11.0,0,0,5,3,3
Ski resort Zauberberg Semmering,Semmering,Austria,15.8290591,47.6326545,3.2 out of 5 stars,985 m - 1350 m (Difference 365 m),14.0,6.5,6.5,1.0,2.0,0,1,1,0,0
Ski resort Oberaudorf – Hocheck,Oberaudorf,Germany,12.1719882,47.6485636,3.2 out of 5 stars,490 m - 852 m (Difference 362 m),8.0,3.0,4.0,1.0,7.0,0,0,1,3,2
Ski resort Lagorai/​Passo Brocon – Castello Tesino,Marande,Italy,11.659540190386757,46.1157389,3.2 out of 5 stars,1598 m - 2050 m (Difference 452 m),10.4,4.8,5.3,0.3,4.0,0,0,3,0,1
Ski resort Rangger Köpfl – Oberperfuss,Oberperfuss,Austria,11.2467684,47.24378,3.2 out of 5 stars,820 m - 1930 m (Difference 1110 m),13.0,7.0,4.0,2.0,5.0,0,2,0,1,1
Ski resort St. Pierre de Chartreuse – Le Planolet,St-Pierre-d'Entremont,France,5.844634772460206,45.383022,3.2 out of 5 stars,900 m - 1800 m (Difference 900 m),35.0,18.0,12.0,5.0,5.0,0,0,1,4,0
Ski resort Panticosa,Panticosa,Spain,-0.2843924,42.7236963,3.2 out of 5 stars,1146 m - 2204 m (Difference 1058 m),35.0,11.0,21.0,3.0,10.0,0,1,5,4,0
Ski resort Thollon les Mémises,Thollon Les Mémises,France,6.6989377,46.3910383,3.2 out of 5 stars,1000 m - 2000 m (Difference 1000 m),48.0,20.0,28.0,0.0,14.0,0,1,4,8,0
Ski resort Stuhleck – Spital am Semmering,Spital am Semmering,Austria,15.7524034,47.6155452,3.2 out of 5 stars,777 m - 1774 m (Difference 997 m),25.9,20.0,5.9,0.0,11.0,0,0,4,5,1
Ski resort Le Lys – Cauterets,Cauterets,France,-0.114546,42.8893451,3.2 out of 5 stars,(931 m  -) 1730 m - 2415 m (Difference 685 m),36.0,21.0,12.0,3.0,11.0,0,1,4,3,0
Ski resort Glacier 3000 – Les Diablerets,Gsteig bei Gstaad,Switzerland,7.2673253,46.3855821,3.2 out of 5 stars,1343 m - 3016 m (Difference 1673 m),31.0,14.5,5.5,11.0,11.0,3,0,3,3,0
Ski resort Astún,Candanchú,Spain,-0.5266516,42.7853573,3.2 out of 5 stars,1655 m - 2272 m (Difference 617 m),39.9,16.8,18.8,4.3,12.0,0,0,5,7,0
Ski resort Praz de Lys/​Sommand (Taninges/​Mieussy),Praz-de-Lys,France,6.569485399496548,46.15746735,3.1 out of 5 stars,1240 m - 1966 m (Difference 726 m),55.0,29.0,20.0,6.0,23.0,0,0,6,15,0
Ski resort La Berra – La Roche,La Roche (CH),Switzerland,6.8352407,46.3839253,3.1 out of 5 stars,1040 m - 1636 m (Difference 596 m),25.0,5.0,20.0,0.0,6.0,0,0,0,4,0
Ski resort Espot Esqui,Espot,Spain,1.0884847,42.5762878,3.1 out of 5 stars,1510 m - 2291 m (Difference 781 m),25.0,13.0,8.0,4.0,3.0,0,0,2,1,0
Ski resort Mariborsko Pohorje – Maribor,Maribor,Slovenia,15.6455854,46.5576439,3.1 out of 5 stars,328 m - 1327 m (Difference 999 m),35.0,20.0,12.0,3.0,14.0,0,1,6,6,0
Ski resort Innerkrems – Kremsbrücke (Krems in Kärnten),Innerkrems,Austria,13.7263797,46.9681058,3.1 out of 5 stars,1550 m - 2200 m (Difference 650 m),36.0,7.0,27.0,2.0,9.0,0,0,2,5,0
Ski resort Gourette (Eaux Bonnes),Gourette,France,-0.3291294998305635,42.9438107,3.1 out of 5 stars,1350 m - 2450 m (Difference 1100 m),28.0,15.0,10.0,3.0,13.0,0,3,6,2,2
Ski resort Beitostølen,Beitostølen,Norway,8.9062594,61.2487161,3.1 out of 5 stars,900 m - 1101 m (Difference 201 m),12.0,9.0,3.0,0.0,6.0,0,0,3,3,0
Ski resort Hochstein – Lienz,Lienz,Austria,12.51192976286156,46.904632,3.1 out of 5 stars,668 m - 1988 m (Difference 1320 m),12.0,0.5,7.3,4.2,4.0,0,0,1,2,0
Ski resort Babin Do – Bjelašnica,Babin Do,Bosnia and Herzegovina,17.6781264,42.9494943,3.1 out of 5 stars,1267 m - 2067 m (Difference 800 m),14.3,4.9,7.8,1.6,8.0,0,0,3,5,0
Indoor ski area Wittenburg (alpincenter Hamburg-Wittenburg),Wittenburg,Germany,11.084783,53.505962,3.1 out of 5 stars,40 m - 96 m (Difference 56 m),0.8,0.5,0.2,0.1,3.0,0,0,1,1,0
Ski resort Leukerbad,Leukerbad,Switzerland,7.6267416,46.3793158,3.1 out of 5 stars,1411 m - 2610 m (Difference 1199 m),47.5,3.5,27.0,17.0,13.0,1,2,1,3,4
Ski resort Markbachjoch/​Lanerköpfl – Niederau,Niederau,Austria,13.7743444,48.0894406,3.1 out of 5 stars,825 m - 1560 m (Difference 735 m),24.0,6.0,12.0,6.0,12.0,0,1,1,7,0
Ski resort Lélex/​Crozet,Lélex,France,5.9407475,46.3026091,3.1 out of 5 stars,(640 m  -) 900 m - 1680 m (Difference 780 m),19.5,5.5,13.0,1.0,10.0,0,2,1,5,0
Ski resort Strandafjellet,Strandafjellet,Norway,5.5939181,60.2884972,3.1 out of 5 stars,430 m - 1230 m (Difference 800 m),25.0,14.0,7.0,4.0,6.0,0,0,1,4,0
Ski resort Bosco Gurin – Grossalp,Bosco Gurin,Switzerland,8.4918978,46.3167843,3.1 out of 5 stars,1482 m - 2331 m (Difference 849 m),30.0,1.0,25.0,4.0,7.0,0,0,2,3,1
Ski resort Romme Alpin,Halvarsgårdarna,Sweden,15.3867427,60.4059609,3.1 out of 5 stars,132 m - 407 m (Difference 275 m),30.0,18.0,6.0,6.0,16.0,0,0,6,7,3
Ski resort Mt. Elbrus,Azau (Азау),North Caucasus,,,3.1 out of 5 stars,2350 m - 3847 m (Difference 1497 m),23.0,6.0,12.0,5.0,7.0,2,3,1,1,0
Ski resort Klewenalp/​Stockhütte – Beckenried/​Emmetten,Emmetten,Switzerland,8.5128414,46.9565663,3.1 out of 5 stars,(451 m  -) 1199 m - 1938 m (Difference 739 m),40.0,15.0,25.0,0.0,15.0,1,1,3,7,2
Ski resort Tschiertschen,Tschiertschen-Praden,Switzerland,9.60687728749149,46.79653315,3.1 out of 5 stars,1350 m - 2381 m (Difference 1031 m),32.0,15.0,14.0,3.0,4.0,0,0,2,2,0
Ski resort Candanchú,Candanchú,Spain,-0.5266516,42.7853573,3.1 out of 5 stars,1514 m - 2236 m (Difference 722 m),50.0,15.8,18.3,15.9,24.0,0,0,6,14,0
Ski resort Piani di Bobbio,Barzio,Italy,9.4687648,45.9460948,3.1 out of 5 stars,(800 m  -) 1340 m - 1950 m (Difference 610 m),35.0,15.0,10.0,10.0,12.0,0,1,5,2,0
Ski resort Tarvisio – Monte Lussari,Tarvisio,Italy,13.5783734,46.5052624,3.1 out of 5 stars,754 m - 1752 m (Difference 998 m),23.1,6.4,8.3,8.4,13.0,0,1,8,1,0
Ski resort Luchon-Superbagnères,Bagnères-de-Luchon,France,0.5912279,42.7910617,3.1 out of 5 stars,(635 m  -) 1465 m - 2125 m (Difference 660 m),32.0,16.0,10.0,6.0,11.0,0,1,5,5,0
Ski resort Piau-Engaly,Piau-Engaly,France,0.1586135065091433,42.78020745,3.1 out of 5 stars,1765 m - 2528 m (Difference 763 m),33.0,18.0,11.0,4.0,9.0,0,0,4,3,0
Ski resort Hirmentaz/​Les Habères – Bellevaux/​Habère-Poche,Habère-Poche,France,6.4735471,46.2486108,3.1 out of 5 stars,920 m - 1576 m (Difference 656 m),50.0,10.0,37.0,3.0,23.0,0,0,6,15,0
Ski resort Alpe du Grand-Serre – La Morte,La Morte,France,5.8536932,45.0313973,3.1 out of 5 stars,1367 m - 2184 m (Difference 817 m),55.0,36.0,17.0,2.0,15.0,0,0,3,11,0
Ski resort Balme/​Les Autannes – Vallorcine/​Le Tour,Vallorcine,France,6.9324887,46.0340383,3.1 out of 5 stars,1453 m - 2250 m (Difference 797 m),29.0,13.0,16.0,0.0,13.0,0,2,2,9,0
Ski resort Carì,Carì,Switzerland,8.8212259,46.4933171,3.1 out of 5 stars,1650 m - 2280 m (Difference 630 m),20.0,8.0,8.0,4.0,4.0,0,0,2,0,2
Ski resort Vitosha/​Aleko – Sofia,Sofia (София),Bulgaria,23.3279154,42.6955481,3.1 out of 5 stars,(726 m  -) 1530 m - 2270 m (Difference 740 m),20.0,12.0,6.0,2.0,7.0,0,1,2,3,0
Ski resort Willingen – Ettelsberg,Willingen (Upland),Germany,8.6647587,51.2951622,3.1 out of 5 stars,578 m - 838 m (Difference 260 m),16.0,7.0,9.0,0.0,12.0,0,1,2,6,3
Ski resort Štrbské Pleso,Štrbské Pleso,Slovakia,20.05396282199524,49.1295731,3.1 out of 5 stars,1380 m - 1824 m (Difference 444 m),8.3,2.7,5.6,0.0,8.0,0,0,3,3,0
Ski resort Kolbensattel – Oberammergau,Oberammergau,Germany,11.0673611,47.5966949,3.1 out of 5 stars,860 m - 1276 m (Difference 416 m),8.0,7.4,0.6,0.0,9.0,0,0,1,3,0
Ski resort Wasserngrat – Gstaad,Gstaad,Switzerland,7.2873587,46.4761004,3.1 out of 5 stars,1275 m - 1940 m (Difference 665 m),9.3,3.5,3.6,2.2,1.0,0,0,1,0,0
Ski resort Straja,Straja,Romania,25.5527501,47.9182518,3.1 out of 5 stars,(752 m  -) 1130 m - 1868 m (Difference 738 m),26.0,6.0,18.0,2.0,12.0,0,1,4,6,0
Ski resort SuperBesse – Puy de Sancy,Super Besse,France,2.8561577,45.5114582,3.1 out of 5 stars,1300 m - 1850 m (Difference 550 m),43.0,30.0,9.0,4.0,23.0,0,1,5,13,0
Ski resort Port del Comte,La Coma i la Pedra,Spain,1.5817023533792938,42.17449855,3.1 out of 5 stars,1745 m - 2310 m (Difference 565 m),40.0,20.0,15.0,5.0,14.0,0,0,5,8,0
Ski resort Montecampione – Alpiaz/​Prato Secondino/​Plan di Montecampione,Montecampione,Italy,10.1855511,45.8281473,3.1 out of 5 stars,1149 m - 1841 m (Difference 692 m),30.0,3.7,21.0,5.3,10.0,0,0,8,1,1
Ski resort Les Marécottes (Salvan),Les Marécottes,Switzerland,7.0090229,46.1129171,3.1 out of 5 stars,1110 m - 2220 m (Difference 1110 m),9.0,2.7,5.0,1.3,4.0,0,1,1,1,0
Ski resort Kitzbüheler Horn,Kitzbühel,Austria,12.3911473,47.4463585,3.1 out of 5 stars,770 m - 2000 m (Difference 1230 m),17.0,6.0,9.0,2.0,10.0,1,3,3,1,2
Ski resort San Bernardino,San Bernardino,Switzerland,9.1844047,46.5173731,3.1 out of 5 stars,1642 m - 2515 m (Difference 873 m),40.0,17.0,20.0,3.0,11.0,0,1,1,4,0
Ski resort Valmalenco – Alpe Palù,Barchi,Italy,12.9284733,43.6724954,3.1 out of 5 stars,(985 m  -) 1527 m - 2353 m (Difference 826 m),21.3,4.1,12.1,5.1,9.0,1,0,6,0,0
Ski resort Valdezcaray,Ezcaray,Spain,-3.0146438,42.3257844,3.1 out of 5 stars,1548 m - 2135 m (Difference 587 m),22.0,10.0,10.0,2.0,10.0,0,0,7,1,0
Ski resort Le Collet d'Allevard,Le Collet d'Allevard,France,6.111079,45.3957287,3.1 out of 5 stars,1450 m - 2140 m (Difference 690 m),35.0,20.0,13.0,2.0,11.0,0,0,4,7,0
Ski resort Antagnod,Antagnod,Italy,7.6895472,45.8144967,3.1 out of 5 stars,1730 m - 2307 m (Difference 577 m),15.0,10.5,4.0,0.5,2.0,0,0,2,0,0
Ski resort Campo Felice – Rocca di Cambio,Campo Felice,Italy,13.8381005,41.2321602,3.1 out of 5 stars,1411 m - 1916 m (Difference 505 m),30.9,8.7,13.7,8.5,15.0,0,0,9,2,3
Ski resort Colere,Colere,Italy,10.082757,45.974292,3.1 out of 5 stars,1050 m - 2250 m (Difference 1200 m),20.1,0.1,18.0,2.0,5.0,0,1,3,0,0
Ski resort La Pierre Saint Martin,La Pierre Saint Martin,France,-0.7311572740107202,42.97309425,3.1 out of 5 stars,1527 m - 2153 m (Difference 626 m),44.0,23.0,18.0,3.0,11.0,0,0,4,4,0
Ski resort Evolène,Lannaz,Switzerland,7.4903518,46.1133029,3.1 out of 5 stars,1404 m - 2632 m (Difference 1228 m),42.0,15.5,10.6,15.9,5.0,0,0,1,3,0
Ski resort Macugnaga,Macugnaga,Italy,7.9672651,45.9683785,3.1 out of 5 stars,1347 m - 2900 m (Difference 1553 m),32.1,7.0,22.1,3.0,9.0,2,0,3,2,2
Ski resort Les Brasses,Onnion,France,6.479722,46.171944,3.1 out of 5 stars,900 m - 1500 m (Difference 600 m),37.0,18.5,15.0,3.5,12.0,0,0,3,9,0
Ski resort Braunwald,Braunwald,Switzerland,8.9984978,46.9392639,3.1 out of 5 stars,(647 m  -) 1236 m - 1901 m (Difference 665 m),28.5,8.5,18.0,2.0,10.0,0,2,2,1,1
Ski resort Sinaia,Sinaia,Romania,25.54956090661161,45.3409142,3.1 out of 5 stars,(850 m  -) 1006 m - 2090 m (Difference 1084 m),19.7,3.4,13.5,2.8,12.0,2,2,4,3,0
Ski resort Pesciüm – Airolo,Airolo,Switzerland,8.6086045,46.5290309,3.1 out of 5 stars,1175 m - 2250 m (Difference 1075 m),30.0,1.0,15.0,14.0,8.0,2,0,1,3,0
Ski resort Füssener Jöchle – Grän,Grän,Austria,10.5534579,47.5010086,3.0 out of 5 stars,1150 m - 1821 m (Difference 671 m),9.0,3.0,5.5,0.5,5.0,0,1,1,2,0
Ski resort Neunerköpfle – Tannheim,Tannheim,Austria,10.5160985,47.4994166,3.0 out of 5 stars,1110 m - 1820 m (Difference 710 m),8.5,2.5,5.0,1.0,6.0,0,1,1,3,1
Ski resort Bláfjöll,Bláfjöll,Iceland,-21.58599,63.99961,3.0 out of 5 stars,460 m - 700 m (Difference 240 m),15.0,10.0,5.0,0.0,14.0,0,0,3,8,1
Ski resort Kristberg – Silbertal,Silbertal,Austria,9.9776931,47.0949582,3.0 out of 5 stars,889 m - 1589 m (Difference 700 m),6.3,1.8,1.2,3.3,4.0,1,0,0,2,1
Ski resort Métabief,Métabief,France,6.3505343,46.7722619,3.0 out of 5 stars,1000 m - 1463 m (Difference 463 m),40.0,19.6,18.0,2.4,17.0,0,0,7,10,0
Ski resort Luz Ardiden,Luz-Saint-Sauveur,France,-0.0043418,42.8721142,3.0 out of 5 stars,1680 m - 2500 m (Difference 820 m),26.0,11.0,13.0,2.0,9.0,0,0,6,1,2
Ski resort Dombay,Dombay (Домба́й),North Caucasus,,,3.0 out of 5 stars,(1590 m  -) 1636 m - 3168 m (Difference 1532 m),20.0,14.0,5.2,0.8,13.0,1,1,7,0,0
Ski resort Artouste,Laruns,France,-0.4266324,42.9882368,3.0 out of 5 stars,1400 m - 2100 m (Difference 700 m),27.0,8.0,15.0,4.0,10.0,0,1,3,6,0
Ski resort Abriès,Abriès,France,6.946307390293598,44.81222215,3.0 out of 5 stars,1450 m - 2450 m (Difference 1000 m),33.0,15.0,15.0,3.0,7.0,0,0,1,5,0
Ski resort Nax – Mont-Noble,Nax,Switzerland,7.4250269,46.2267697,3.0 out of 5 stars,1495 m - 2640 m (Difference 1145 m),35.0,15.0,20.0,0.0,6.0,0,0,3,2,0
Ski resort Torgnon,Torgnon,Italy,7.565728229452157,45.823959650000006,3.0 out of 5 stars,1515 m - 2246 m (Difference 731 m),20.0,6.0,12.0,2.0,5.0,0,1,4,0,0
Ski resort Kasberg – Grünau im Almtal,Enzenbachmühle,Austria,13.9925399,47.8587424,3.0 out of 5 stars,620 m - 1600 m (Difference 980 m),23.0,13.0,8.0,2.0,12.0,0,2,1,6,3
Ski resort Kaiseregg/​Riggisalp – Schwarzsee,Schwarzsee,Switzerland,7.280643975442837,46.66513645,3.0 out of 5 stars,1047 m - 1751 m (Difference 704 m),20.0,10.5,6.5,3.0,6.0,0,0,2,2,0
Ski resort Champorcher,Champorcher,Italy,7.6210174,45.6238736,3.0 out of 5 stars,1440 m - 2500 m (Difference 1060 m),14.0,2.0,9.0,3.0,5.0,0,1,2,2,0
Ski resort Pralognan la Vanoise,Pralognan,France,6.5913617,45.2134144,3.0 out of 5 stars,1410 m - 2355 m (Difference 945 m),26.0,7.0,17.0,2.0,12.0,1,0,4,7,0
Ski resort Port Ainé,Port Ainé,Spain,1.2150967547289129,42.42338915,3.0 out of 5 stars,1678 m - 2421 m (Difference 743 m),26.7,10.7,11.7,4.3,6.0,0,0,3,3,0
Ski resort Norefjell,Norefjell Skisenter,Norway,9.563,60.2169,3.0 out of 5 stars,178 m - 1188 m (Difference 1010 m),25.0,17.0,5.0,3.0,14.0,0,0,3,11,0
Ski resort Le Mont-Dore,Le Mont-Dore,France,-0.1992419,46.7319309,3.0 out of 5 stars,1200 m - 1840 m (Difference 640 m),41.0,30.0,10.0,1.0,14.0,1,0,3,9,0
Ski resort Moléson,Moléson-sur-Gruyères,Switzerland,7.0371126,46.5642031,3.0 out of 5 stars,1109 m - 1978 m (Difference 869 m),30.0,19.0,4.0,7.0,6.0,1,0,1,2,1
Ski resort Monte Magnola – Ovindoli,Ovindoli,Italy,13.516097,42.137031,3.0 out of 5 stars,1505 m - 2056 m (Difference 551 m),20.0,4.0,9.0,7.0,8.0,0,1,7,0,0
Ski resort Piana di Vigezzo – Craveggia/​Santa Maria Maggiore,Santa Maria Maggiore,Italy,12.4984700318809,41.89762675,3.0 out of 5 stars,(810 m  -) 1180 m - 2064 m (Difference 884 m),19.0,7.0,10.0,2.0,5.0,0,1,3,1,0
Ski resort Cerkno,Gorenji Novaki,Slovenia,14.0459384,46.1511894,3.0 out of 5 stars,935 m - 1287 m (Difference 352 m),18.0,9.0,8.0,1.0,7.0,0,0,5,2,0
Ski resort Valgrande Pajares,Lena,Spain,-5.8281354,43.1615692,3.0 out of 5 stars,1455 m - 1840 m (Difference 385 m),22.6,8.0,12.3,2.3,5.0,0,1,2,2,0
Ski resort Präbichl – Vordernberg,Präbichl,Austria,14.9472379,47.5242441,3.0 out of 5 stars,1100 m - 1608 m (Difference 508 m),20.0,6.0,11.0,3.0,6.0,0,0,3,2,0
Ski resort Guzet,Guzet-Neige,France,1.3020896,42.7791077,3.0 out of 5 stars,1108 m - 2050 m (Difference 942 m),40.0,20.0,14.0,6.0,15.0,0,0,4,11,0
Ski resort Big Wood,Kirovsk (Кировск),Northwest Russia,,,3.0 out of 5 stars,380 m - 1047 m (Difference 667 m),26.7,13.5,8.5,4.7,9.0,0,0,2,4,0
Ski resort Formiguères,Formiguères,France,2.1028547,42.6140573,3.0 out of 5 stars,1730 m - 2320 m (Difference 590 m),22.0,15.0,6.0,1.0,6.0,0,0,1,3,0
Ski resort Padola – Ski Area Comelico,Padola,Italy,12.5385493,46.5677349,3.0 out of 5 stars,1211 m - 1943 m (Difference 732 m),8.3,3.5,2.0,2.8,2.0,0,0,1,1,0
Ski resort Sangiacomo/​Cardini – Monte Alpet,San Giacomo di Roburent,Italy,7.8771114,44.2927392,3.0 out of 5 stars,1098 m - 1611 m (Difference 513 m),35.0,13.0,12.0,10.0,8.0,0,0,2,6,0
Ski resort La Braye – Château d'Oex,Château d'Oex,Switzerland,7.13056,46.4739581,3.0 out of 5 stars,(958 m  -) 1215 m - 1630 m (Difference 415 m),28.5,10.5,10.0,8.0,7.0,1,0,2,4,0
Ski resort Foppolo/​Carona (Brembo Ski),Carona,Italy,10.090357807086368,46.14081105,3.0 out of 5 stars,1160 m - 2163 m (Difference 1003 m),22.0,4.0,16.0,2.0,9.0,0,0,6,0,0
Ski resort Ravna Planina,Pale,Bosnia and Herzegovina,18.5692689,43.814105,3.0 out of 5 stars,920 m - 1281 m (Difference 361 m),12.5,10.7,1.4,0.4,3.0,0,1,0,1,0
Ski resort Postwiesen Skidorf – Neuastenberg,Neuastenberg,Germany,8.485136,51.1650061,3.0 out of 5 stars,605 m - 730 m (Difference 125 m),8.0,3.0,3.4,1.6,9.0,0,0,1,7,0
Ski resort Mechi Chal – Chepelare,Chepelare,Bulgaria,24.6853052,41.7256563,3.0 out of 5 stars,1155 m - 1873 m (Difference 718 m),13.6,8.3,5.3,0.0,2.0,0,0,1,0,0
Ski resort Brambrüesch/​Dreibündenstein – Chur,Chur,Switzerland,9.5264904,46.854747,3.0 out of 5 stars,(595 m  -) 1170 m - 2174 m (Difference 1004 m),20.0,8.0,8.0,4.0,5.0,1,1,1,1,0
Ski resort Kolasportland,Kirovsk (Кировск),Northwest Russia,,,3.0 out of 5 stars,390 m - 852 m (Difference 462 m),30.0,15.0,14.0,1.0,7.0,0,1,0,6,0
Ski resort Pröller Skidreieck (St. Englmar),Klinglbach,Germany,12.7984132,49.0239422,3.0 out of 5 stars,720 m - 1030 m (Difference 310 m),5.0,2.8,1.7,0.5,3.0,0,0,0,3,0
Ski resort Jaun,Jaun,Switzerland,7.2761312,46.6113953,3.0 out of 5 stars,1023 m - 1571 m (Difference 548 m),20.0,9.0,9.0,2.0,4.0,0,0,1,3,0
Ski resort Geißkopf – Bischofsmais,Habischried,Germany,13.0395934,48.9426389,3.0 out of 5 stars,835 m - 1100 m (Difference 265 m),8.0,1.8,5.3,0.9,8.0,0,0,1,4,2
Ski resort Bonneval sur Arc,Bonneval-sur-Arc,France,7.0467945,45.3716864,3.0 out of 5 stars,1850 m - 3000 m (Difference 1150 m),32.0,9.0,19.5,3.5,10.0,0,0,3,7,0
Ski resort Petzen – Feistritz ob Bleiburg,Feistritz Ob Bleiburg,Austria,14.766607502723474,46.55278775,3.0 out of 5 stars,650 m - 1900 m (Difference 1250 m),13.7,7.2,5.9,0.6,6.0,0,1,1,3,0
Ski resort Roc d'Enfer – St. Jean d'Aulps-La Grande Terche/​Bellevaux-La Chèvrerie,La Chèvrerie,France,0.1379874,46.0460639,3.0 out of 5 stars,950 m - 1800 m (Difference 850 m),28.0,6.0,21.0,1.0,16.0,0,1,4,11,0
Ski resort Lofsdalen,Lofsdalen,Sweden,13.2740313,62.1137446,3.0 out of 5 stars,633 m - 1125 m (Difference 492 m),26.5,16.5,7.2,2.8,9.0,0,0,2,7,0
Ski resort La Pinilla,Riaza,Spain,-3.4772594,41.279379,3.0 out of 5 stars,1484 m - 2036 m (Difference 552 m),21.0,14.0,6.0,1.0,11.0,0,1,3,7,0
Ski resort Gérardmer – La Mauselaine,La Mauselaine,France,6.8882717,48.0592543,3.0 out of 5 stars,770 m - 1140 m (Difference 370 m),40.0,24.0,14.0,2.0,19.0,0,0,2,14,0
Ski resort Mijoux/​La Faucille,Mijoux,France,5.9960675,46.3662199,3.0 out of 5 stars,1000 m - 1533 m (Difference 533 m),15.3,3.0,12.0,0.3,6.0,0,0,1,4,0
Ski resort Stari Vrh,Zapreval,Slovenia,14.1875055,46.174697,3.0 out of 5 stars,580 m - 1217 m (Difference 637 m),12.0,4.0,6.0,2.0,4.0,0,0,1,3,0
Ski resort La Colmiane,Valdeblore,France,7.1719421,44.0707352,3.0 out of 5 stars,1450 m - 1800 m (Difference 350 m),30.0,21.0,6.0,3.0,7.0,0,0,1,5,0
Ski resort Rittner Horn (Corno del Renon) – Ritten (Renon),Ritten (Renon),Italy,11.44143495474516,46.5629355,3.0 out of 5 stars,(273 m  -) 1538 m - 2260 m (Difference 722 m),13.0,8.0,2.6,2.4,3.0,0,1,0,2,0
Ski resort Forni di Sopra,Forni di Sopra,Italy,12.5855959,46.4202272,3.0 out of 5 stars,880 m - 2073 m (Difference 1193 m),12.7,0.9,11.0,0.8,8.0,0,0,4,1,0
Ski resort Giw – Visperterminen,Visperterminen,Switzerland,7.9030118,46.2589888,3.0 out of 5 stars,1381 m - 2309 m (Difference 928 m),20.5,3.5,12.5,4.5,5.0,0,0,1,3,0
Ski resort Cima Piazzi/​San Colombano – Isolaccia/​Oga,Isolaccia,Italy,10.2951485,46.4891065,3.0 out of 5 stars,1340 m - 2547 m (Difference 1207 m),19.6,1.6,17.2,0.8,10.0,0,1,3,3,3
Ski resort Sainte-Anne la Condamine – La Condamine-Châtelard,Sainte-Anne-la-Condamine,France,6.720189,44.4678996,3.0 out of 5 stars,1830 m - 2400 m (Difference 570 m),31.6,18.3,10.5,2.8,6.0,0,0,2,3,0
Ski resort Lorica,Lorica,Italy,16.5110479,39.2498326,3.0 out of 5 stars,1405 m - 1877 m (Difference 472 m),20.0,10.0,7.0,3.0,7.0,0,1,1,2,3
Ski resort La Dôle/​Les Tuffes (Jura sur Léman),La Darbella,France,6.0449374,46.4471426,3.0 out of 5 stars,1160 m - 1678 m (Difference 518 m),28.6,17.5,8.7,2.4,21.0,0,0,4,16,0
Ski resort Tänndalen,Svansjön,Sweden,15.2944365,59.4510482,3.0 out of 5 stars,743 m - 1038 m (Difference 295 m),38.0,20.0,15.0,3.0,17.0,0,0,2,12,3
Ski resort Olimpica – Borșa,,Romania,23.7187908,46.7674886,3.0 out of 5 stars,853 m - 1623 m (Difference 770 m),7.0,4.0,3.0,0.0,1.0,0,1,0,0,0
Ski resort San Vito di Cadore,San Vito di Cadore,Italy,12.2057415,46.458966,3.0 out of 5 stars,1048 m - 1584 m (Difference 536 m),10.0,4.0,5.0,1.0,5.0,0,0,2,1,2
Ski resort Schetteregg – Egg,Amagmach,Austria,9.9845823,47.4206934,3.0 out of 5 stars,1070 m - 1325 m (Difference 255 m),11.0,4.0,6.0,1.0,8.0,0,0,1,5,2
Ski resort Reith bei Kitzbühel,Reith bei Kitzbühel,Austria,12.3422357,47.476011,3.0 out of 5 stars,770 m - 865 m (Difference 95 m),1.8,1.7,0.1,0.0,2.0,0,0,0,1,1
Ski resort Gaissau-Hintersee,Hintersee,Austria,13.2881383,47.7133066,3.0 out of 5 stars,750 m - 1567 m (Difference 817 m),30.0,20.0,9.0,1.0,8.0,0,0,3,4,0
Ski resort Molines-en-Queyras/​Saint-Véran,Saint-Véran,France,6.8687131,44.6993395,3.0 out of 5 stars,1750 m - 2800 m (Difference 1050 m),33.0,20.0,12.0,1.0,13.0,0,0,2,11,0
Ski resort Albiez-Montrond,Albiez Montrond,France,6.334468737985419,45.1894606,3.0 out of 5 stars,1520 m - 2100 m (Difference 580 m),35.0,25.0,7.0,3.0,7.0,0,0,2,5,0
Ski resort Réallon,Réallon,France,6.3564377252838185,44.61619325,3.0 out of 5 stars,1560 m - 2146 m (Difference 586 m),30.0,20.0,8.0,2.0,6.0,0,0,2,3,0
Ski resort Falakro,Kato Nevrokopi (Κάτω Νευροκόπι),Greece,23.866879,41.3435811,3.0 out of 5 stars,1615 m - 2232 m (Difference 617 m),22.2,3.8,11.3,7.1,9.0,0,0,2,4,0
Ski resort Obertilliach – Golzentipp,Obertilliach,Austria,12.6147258,46.7100276,2.9 out of 5 stars,1430 m - 2248 m (Difference 818 m),12.2,3.4,7.8,1.0,5.0,0,1,0,4,0
Ski resort Nevis Range,Fort William,United Kingdom,-5.110974,56.8178285,2.9 out of 5 stars,(91 m  -) 655 m - 1221 m (Difference 566 m),20.0,7.0,10.0,3.0,13.0,0,1,3,7,0
Ski resort Monte Verena – Mezzaselva di Roana,Verenetta,Italy,11.405288,45.9183127,2.9 out of 5 stars,1640 m - 2020 m (Difference 380 m),15.0,5.0,3.0,7.0,5.0,0,0,3,1,0
Ski resort Altopiano di Brentonico – Polsa/​San Valentino,Polsa,Italy,10.9448377,45.7839216,2.9 out of 5 stars,1195 m - 1583 m (Difference 388 m),22.0,6.8,10.8,4.4,7.0,0,0,3,1,3
Ski resort Gemeindealpe – Mitterbach am Erlaufsee,Mitterbach am Erlaufsee,Austria,15.256513421589084,47.83582795,2.9 out of 5 stars,800 m - 1626 m (Difference 826 m),15.5,7.0,7.0,1.5,4.0,0,0,2,2,0
Ski resort Alto Campoo,Hermandad de Campoo de Suso,Spain,-4.277679557041367,43.0317772,2.9 out of 5 stars,1650 m - 2120 m (Difference 470 m),27.7,13.6,10.9,3.2,12.0,0,0,5,6,0
Ski resort Černá hora – Janské Lázně,Janské Lázně/Johannisbad,Czech Republic,15.777822930511809,50.6273957,2.9 out of 5 stars,643 m - 1260 m (Difference 617 m),15.0,3.1,10.9,1.0,12.0,0,1,2,8,1
Ski resort Oeschinensee – Kandersteg,Kandersteg,Switzerland,7.6756638,46.4975866,2.9 out of 5 stars,1200 m - 1730 m (Difference 530 m),13.0,4.1,8.9,0.0,6.0,0,1,0,3,1
Ski resort Bjorli,Bjorli,Norway,8.2061041,62.2578375,2.9 out of 5 stars,575 m - 1238 m (Difference 663 m),19.9,13.1,3.0,3.8,6.0,0,0,1,5,0
Ski resort Roubion les Buisses,Roubion,France,7.051195,44.092935,2.9 out of 5 stars,1420 m - 1920 m (Difference 500 m),30.0,16.0,12.0,2.0,7.0,0,0,1,5,0
Ski resort Krippenstein – Obertraun,Obertraun,Austria,13.685288,47.5580272,2.9 out of 5 stars,609 m - 2109 m (Difference 1500 m),12.0,3.0,9.0,0.0,7.0,3,0,1,1,0
Ski resort Hündle/​Thalkirchdorf (Oberstaufen),Thalkirchdorf,Germany,10.0884758,47.5535282,2.9 out of 5 stars,745 m - 1170 m (Difference 425 m),18.0,10.1,7.3,0.6,8.0,0,1,1,5,0
Ski resort Steibis – Imberg (Oberstaufen),Steibis,Germany,10.0234176,47.531017,2.9 out of 5 stars,859 m - 1338 m (Difference 479 m),17.6,6.0,5.0,6.6,12.0,0,1,1,9,0
Ski resort Popova Sapka,Popova Šapka (Попова Шапка),North Macedonia,20.886045,42.0165842,2.9 out of 5 stars,1672 m - 2380 m (Difference 708 m),18.0,6.0,7.0,5.0,8.0,0,0,3,5,0
Ski resort Pelvoux/​Vallouise,Pelvoux,France,6.442831971371537,44.90338989999999,2.9 out of 5 stars,1250 m - 2300 m (Difference 1050 m),25.0,14.8,8.5,1.7,7.0,0,0,2,4,0
Ski resort Arolla,Arolla,Switzerland,7.4810866,46.025975,2.9 out of 5 stars,1984 m - 2877 m (Difference 893 m),47.0,20.0,18.0,9.0,5.0,0,0,0,5,0
Ski resort Gressoney-Saint-Jean – Weissmatten,Gressoney-St. Jean,Italy,7.8250324,45.7792971,2.9 out of 5 stars,1348 m - 2023 m (Difference 675 m),12.0,6.0,4.0,2.0,4.0,0,0,1,1,2
Ski resort Ceillac en Queyras,Ceillac,France,6.7780124,44.6683282,2.9 out of 5 stars,1650 m - 2500 m (Difference 850 m),25.0,12.0,12.0,1.0,6.0,0,0,1,5,0
Ski resort Belchen,Aitern,Germany,7.9011657,47.8017981,2.9 out of 5 stars,1100 m - 1363 m (Difference 263 m),8.0,6.0,2.0,0.0,1.0,0,1,0,0,0
Ski resort Savin Kuk – Žabljak,Virak,Montenegro,19.1112996,43.1173534,2.9 out of 5 stars,1515 m - 2212 m (Difference 697 m),4.7,2.6,1.2,0.9,6.0,0,0,2,3,0
Ski resort Rofan – Maurach,Maurach am Achensee,Austria,11.7501183,47.4230679,2.9 out of 5 stars,980 m - 1870 m (Difference 890 m),11.0,1.0,8.0,2.0,5.0,1,0,2,0,2
Ski resort Passo dello Stelvio (Stelvio Pass),Stilfserjoch (Passo dello Stelvio),Italy,10.4534786,46.5287457,2.9 out of 5 stars,2760 m - 3450 m (Difference 690 m),9.0,8.0,1.0,0.0,6.0,2,0,0,4,0
Ski resort Gavarnie/​Gèdre – Les Espécières,Gavarnie,France,-0.0093524,42.7322036,2.9 out of 5 stars,1820 m - 2282 m (Difference 462 m),32.0,16.0,12.0,4.0,7.0,0,0,2,5,0
Ski resort Arnoldstein – Dreiländereck,Seltschach,Austria,13.7037919,46.5398649,2.9 out of 5 stars,680 m - 1550 m (Difference 870 m),15.1,4.7,7.2,3.2,7.0,0,0,1,6,0
Ski resort Karkogel – Abtenau,Abtenau,Austria,13.3460333,47.5642319,2.9 out of 5 stars,712 m - 1200 m (Difference 488 m),9.0,4.4,1.6,3.0,5.0,0,0,0,4,0
Ski resort Ramundberget,Ramundberget,Sweden,12.3758939,62.666622,2.9 out of 5 stars,700 m - 1000 m (Difference 300 m),25.0,7.6,9.4,8.0,10.0,0,0,2,7,1
Ski resort Passo Maniva,Bagolino,Italy,10.4627308,45.8235613,2.9 out of 5 stars,1660 m - 2064 m (Difference 404 m),30.0,21.1,5.4,3.5,9.0,0,0,3,1,0
Ski resort Glenshee,Spittal of Glenshee,United Kingdom,-3.4606752,56.8128883,2.9 out of 5 stars,650 m - 900 m (Difference 250 m),40.0,24.0,10.0,6.0,21.0,0,0,3,18,0
Ski resort Mt. Cheget,Cheget (Чегет),North Caucasus,,,2.9 out of 5 stars,2120 m - 3260 m (Difference 1140 m),20.0,6.0,10.0,4.0,5.0,0,0,3,2,0
Ski resort Baranci (Haunold) – San Candido (Innichen),Innichen (San Candido),Italy,12.2791673,46.7328719,2.9 out of 5 stars,1175 m - 1610 m (Difference 435 m),12.6,7.2,5.1,0.3,5.0,0,0,1,4,0
Ski resort Bernex,Bernex,France,6.6753169,46.3607868,2.9 out of 5 stars,1000 m - 1912 m (Difference 912 m),19.0,8.0,7.0,4.0,12.0,0,0,3,9,0
Ski resort Bürgeralpe – Mariazell,Mariazell,Austria,15.3174781,47.7717395,2.9 out of 5 stars,851 m - 1267 m (Difference 416 m),11.5,7.0,3.0,1.5,4.0,0,1,2,1,0
Ski resort Campitello Matese,Campitello Matese,Italy,14.3934605,41.4618523,2.9 out of 5 stars,1417 m - 1827 m (Difference 410 m),19.2,4.1,12.9,2.2,6.0,0,0,4,1,0
Ski resort Kouty nad Desnou,Kouty nad Desnou,Czech Republic,17.116547,50.101047,2.9 out of 5 stars,574 m - 1095 m (Difference 521 m),11.5,5.5,5.3,0.7,5.0,0,0,1,3,1
Ski resort Wurmberg – Braunlage,Braunlage,Germany,10.6100516,51.7264388,2.9 out of 5 stars,565 m - 970 m (Difference 405 m),11.8,10.0,1.3,0.5,7.0,0,2,1,3,0
Ski resort Tornik – Zlatibor,Zlatibor (Златибор),Serbia,19.761435259223347,43.5879885,2.9 out of 5 stars,(964 m  -) 1110 m - 1490 m (Difference 380 m),7.0,1.6,4.2,1.2,6.0,0,1,1,2,2
Ski resort Cambre d'Aze – Eyne/​Saint-Pierre-dels-Forcats,Eyne 2600,France,2.0997171,42.4763087,2.9 out of 5 stars,1640 m - 2400 m (Difference 760 m),22.5,12.8,6.9,2.8,14.0,0,0,1,12,0
Ski resort Darlux – Bergün,Bergün/Bravuogn,Switzerland,9.7452826,46.6290381,2.9 out of 5 stars,1384 m - 2569 m (Difference 1185 m),20.0,4.0,15.0,1.0,3.0,0,0,2,1,0
Ski resort Chabanon,Chabanon,France,6.2949918,44.3463847,2.9 out of 5 stars,1546 m - 2025 m (Difference 479 m),40.0,18.0,15.0,7.0,12.0,0,0,1,10,0
Ski resort Hochkar – Göstling,Lassing,Austria,14.2633436,47.5269086,2.9 out of 5 stars,1380 m - 1808 m (Difference 428 m),19.2,5.6,10.8,2.8,8.0,0,0,6,2,0
Ski resort Auronzo di Cadore – Monte Agudo,Auronzo di Cadore,Italy,12.4430387,46.5511562,2.9 out of 5 stars,860 m - 1585 m (Difference 725 m),7.0,3.0,3.0,1.0,3.0,0,0,2,1,0
Ski resort Cairngorm Mountain,Aviemore/An Aghaidh Mhòr,United Kingdom,-3.8288803,57.188278,2.9 out of 5 stars,640 m - 1230 m (Difference 590 m),32.0,24.0,6.0,2.0,11.0,0,0,0,9,0
Ski resort Branäs,Branäs,Sweden,12.9632208,60.6610703,2.9 out of 5 stars,152 m - 567 m (Difference 415 m),23.0,17.0,5.0,1.0,30.0,0,1,3,19,0
Ski resort Wispile – Gstaad,Gstaad,Switzerland,7.2873587,46.4761004,2.9 out of 5 stars,1043 m - 1939 m (Difference 896 m),8.9,3.6,3.7,1.6,5.0,0,2,0,3,0
Ski resort Poiana Brașov,Poiana Brașov,Romania,25.5561895,45.5967098,2.9 out of 5 stars,941 m - 1783 m (Difference 842 m),13.7,5.8,2.8,5.1,10.0,2,1,2,5,0
Ski resort Chelmos – Kalavrita,Kalavryta,Greece,22.1103931,38.0333853,2.9 out of 5 stars,1700 m - 2325 m (Difference 625 m),12.2,4.8,5.8,1.6,8.0,0,1,1,3,0
Ski resort Prati di Tivo,Pietracamela,Italy,13.555392,42.52354,2.9 out of 5 stars,1395 m - 2028 m (Difference 633 m),7.5,1.5,5.0,1.0,4.0,0,0,2,0,1
Ski resort Unterbäch – Brandalp/​Ginals,Unterbäch,Switzerland,7.779865291421668,46.2609289,2.9 out of 5 stars,(640 m  -) 1230 m - 2443 m (Difference 1213 m),19.0,10.0,6.0,3.0,7.0,1,0,2,3,1
Ski resort LeMelette – Gallio,Gallio,Italy,11.5471016,45.8926258,2.9 out of 5 stars,1413 m - 1733 m (Difference 320 m),18.2,2.2,11.9,4.1,4.0,0,0,4,0,0
Ski resort Nesfjellet – Nesbyen,Nesbyen,Norway,9.02834167962304,60.5468243,2.9 out of 5 stars,732 m - 1115 m (Difference 383 m),13.4,4.9,6.9,1.6,6.0,0,0,1,5,0
Ski resort Crévacol,Saint-Rhémy-en-Bosses,Italy,7.1821889,45.8237439,2.9 out of 5 stars,1640 m - 2450 m (Difference 810 m),21.0,7.0,11.0,3.0,3.0,0,0,2,1,0
Ski resort Gautefall,Drangedal,Norway,8.9687835464674,59.09089375,2.9 out of 5 stars,500 m - 700 m (Difference 200 m),9.9,4.5,4.4,1.0,2.0,0,0,1,1,0
Ski resort Vrådal,Vrådal,Norway,8.4157026,59.3278299,2.9 out of 5 stars,262 m - 735 m (Difference 473 m),16.0,9.5,5.0,1.5,8.0,0,0,1,4,0
Ski resort Piancavallo,Piancavallo,Italy,12.5190567,46.1092703,2.9 out of 5 stars,1245 m - 1865 m (Difference 620 m),13.3,2.2,10.0,1.1,12.0,0,0,6,0,0
Ski resort Plešivec – Abertamy,Pstruží u Merklína,Czech Republic,12.8228669,50.3471908,2.9 out of 5 stars,707 m - 1026 m (Difference 319 m),12.0,10.0,1.1,0.9,9.0,0,0,3,1,5
Ski resort Ancelle,Ancelle,France,6.2097914,44.6235694,2.9 out of 5 stars,1340 m - 1807 m (Difference 467 m),30.0,16.0,12.0,2.0,13.0,0,0,2,11,0
Ski resort Veľká Rača,Oščadnica,Slovakia,18.882944,49.4366294,2.9 out of 5 stars,652 m - 1041 m (Difference 389 m),12.0,5.0,6.0,1.0,5.0,0,0,2,2,0
Ski resort Horní Domky – Lysá Hora,Horní Rokytnice,Czech Republic,15.46431,50.7267094,2.9 out of 5 stars,642 m - 1315 m (Difference 673 m),13.7,7.6,4.7,1.4,9.0,0,0,2,7,0
Ski resort Zieleniec,Duszniki-Zdrój,Poland,16.3901528,50.4044249,2.9 out of 5 stars,740 m - 1025 m (Difference 285 m),21.6,13.0,7.8,0.8,31.0,0,0,6,19,5
Ski resort Glencoe Mountain,Glencoe Village,United Kingdom,-5.1014552,56.6827647,2.9 out of 5 stars,360 m - 1070 m (Difference 710 m),24.3,7.0,10.0,7.3,9.0,0,0,3,5,0
Ski resort Elsigen-Metsch – Frutigen,Elsigbach,Switzerland,7.6071017,46.5289657,2.9 out of 5 stars,1334 m - 2289 m (Difference 955 m),30.0,10.0,17.0,3.0,11.0,1,0,0,7,0
Ski resort Karwendel Bergbahn (Zwölferkopf) – Pertisau,Pertisau,Austria,11.6990088,47.4400701,2.9 out of 5 stars,960 m - 1560 m (Difference 600 m),12.0,6.0,6.0,0.0,5.0,0,1,0,3,1
Ski resort Schöneck (Skiwelt),Schöneck,Germany,8.83333,50.2056,2.9 out of 5 stars,620 m - 760 m (Difference 140 m),2.0,0.7,0.8,0.5,5.0,0,0,1,1,1
Ski resort Uvdal Alpinsenter,Uvdal,Norway,8.7509752,60.2698519,2.9 out of 5 stars,656 m - 1203 m (Difference 547 m),29.3,22.0,6.3,1.0,5.0,0,0,1,3,0
Ski resort Saint-Léger-les-Mélèzes,Saint-Léger-les-Mélèzes,France,6.1993686,44.6442109,2.9 out of 5 stars,1260 m - 1982 m (Difference 722 m),24.0,10.0,12.0,2.0,8.0,0,0,2,6,0
Ski resort Kampenwand – Aschau im Chiemgau,Hohenaschau im Chiemgau,Germany,12.3233588,47.7654148,2.9 out of 5 stars,626 m - 1475 m (Difference 849 m),12.0,4.0,7.0,1.0,4.0,0,1,2,1,0
Ski resort L'Essert – Abondance,Abondance,France,6.7198574,46.280661,2.9 out of 5 stars,936 m - 1730 m (Difference 794 m),15.0,11.0,3.0,1.0,8.0,0,1,0,6,0
Ski resort Alpe di Mera – Scopello,Alpe di Mera,Italy,8.0879703,45.7456686,2.9 out of 5 stars,682 m - 1739 m (Difference 1057 m),17.0,2.7,13.3,1.0,7.0,0,0,4,1,0
Ski resort San Isidro-Zona Cebolledo,Puebla de Lillo,Spain,-5.2742117,43.0082517,2.9 out of 5 stars,1640 m - 2030 m (Difference 390 m),20.8,6.8,9.5,4.5,7.0,0,0,4,2,0
Ski resort Aillons-Margériaz,Aillon-le-Jeune,France,6.08026,45.6192,2.9 out of 5 stars,1370 m - 1785 m (Difference 415 m),24.0,18.2,4.0,1.8,10.0,0,0,1,8,0
Ski resort Vrátna,Terchová,Slovakia,19.0304784,49.2580251,2.9 out of 5 stars,600 m - 1520 m (Difference 920 m),14.6,1.0,7.9,5.7,13.0,0,1,1,10,0
Ski resort Vigla Pisoderi/​Verno – Florina,Vigla (Βίγλα),Greece,25.7686825,36.3748083,2.9 out of 5 stars,1455 m - 1970 m (Difference 515 m),15.4,6.7,7.7,1.0,5.0,0,0,2,1,0
Ski resort La Covatilla – Sierra de Béjar,Béjar,Spain,-5.7649619,40.3865812,2.9 out of 5 stars,1977 m - 2368 m (Difference 391 m),26.8,8.6,18.2,0.0,4.0,0,0,1,2,0
Ski resort Duved/​Tegefjäll,Duved,Sweden,12.9198927,63.3941812,2.9 out of 5 stars,420 m - 794 m (Difference 374 m),20.0,8.0,12.0,0.0,12.0,0,0,2,8,2
Ski resort Col de Rousset,Saint-Agnan-en-Vercors,France,5.4316198,44.9354489,2.9 out of 5 stars,1255 m - 1700 m (Difference 445 m),29.0,22.0,5.0,2.0,11.0,0,0,1,9,0
Ski resort Lizzola,Lizzola,Italy,10.0148512,46.02398,2.9 out of 5 stars,1262 m - 2028 m (Difference 766 m),20.0,2.0,18.0,0.0,5.0,0,0,4,0,0
Ski resort Fendels,Fendels,Austria,10.676418,47.053763,2.9 out of 5 stars,(910 m  -) 1325 m - 2271 m (Difference 946 m),8.5,3.8,3.6,1.1,6.0,0,1,1,4,0
Ski resort Funäsdalsberget,Funäsdalen,Sweden,12.5418262,62.5461507,2.9 out of 5 stars,663 m - 977 m (Difference 314 m),10.0,4.0,4.0,2.0,5.0,0,1,1,3,0
Ski resort Kranjska Gora,Kranjska Gora,Slovenia,13.7843957,46.485132,2.8 out of 5 stars,807 m - 1282 m (Difference 475 m),20.0,10.0,8.0,2.0,15.0,0,0,6,6,0
Ski resort Czarna Góra – Sienna,Sienna,Poland,16.8197222,51.2994444,2.8 out of 5 stars,787 m - 1173 m (Difference 386 m),13.7,5.8,6.3,1.6,13.0,0,0,3,6,4
Ski resort La Robella – Buttes (Val-de-Travers),Buttes,Switzerland,6.5513541,46.8874604,2.8 out of 5 stars,780 m - 1446 m (Difference 666 m),20.0,10.0,5.0,5.0,4.0,0,0,1,3,0
Ski resort Le Semnoz,Annecy,France,6.1288847,45.8992348,2.8 out of 5 stars,1450 m - 1704 m (Difference 254 m),18.0,12.0,5.0,1.0,10.0,0,0,1,7,0
Ski resort Stara Planina – Babin Zub,Jabučko Ravnište,Serbia,22.579224,43.3626098,2.8 out of 5 stars,1240 m - 1758 m (Difference 518 m),13.0,7.0,3.0,3.0,6.0,0,1,2,1,1
Ski resort Sampeyre,Sampeyre,Italy,7.1888889,44.5796844,2.8 out of 5 stars,995 m - 1860 m (Difference 865 m),17.2,9.4,6.8,1.0,2.0,0,0,2,0,0
Ski resort Klippitztörl,Klippitztörl,Austria,14.6741433,46.9366961,2.8 out of 5 stars,1460 m - 1818 m (Difference 358 m),28.0,18.0,10.0,0.0,6.0,0,0,2,3,0
Ski resort Praděd/​Myšák – Malá Morávka (Ski Karlov),Karlov pod Pradědem,Czech Republic,17.2838791,50.0181695,2.8 out of 5 stars,685 m - 850 m (Difference 165 m),10.4,6.9,3.5,0.0,11.0,0,0,3,3,5
Ski resort Corno alle Scale – Lizzano in Belvedere,Vidiciatico,Italy,10.8738828,44.1705692,2.8 out of 5 stars,1418 m - 1945 m (Difference 527 m),14.0,5.0,7.0,2.0,6.0,0,0,5,0,0
Ski resort Cmiljača – Bjelasica,Bijelo Polje,Montenegro,19.7473559,43.0341595,,1570 m - 1907 m (Difference 337 m),0.0,0.0,0.0,0.0,1.0,0,0,1,0,0
Ski resort TschentenAlp – Adelboden,Adelboden,Switzerland,7.5587618,46.4927213,2.8 out of 5 stars,1367 m - 1950 m (Difference 583 m),10.0,1.5,7.0,1.5,4.0,0,1,1,1,1
Ski resort Sarn (Heinzenberg),Sarn,Switzerland,9.4099271,46.7199882,2.8 out of 5 stars,1300 m - 2075 m (Difference 775 m),20.0,8.0,10.0,2.0,4.0,0,0,1,1,1
Ski resort Chiomonte Frais,Chiomonte,Italy,6.985306,45.119542,2.8 out of 5 stars,1460 m - 2090 m (Difference 630 m),19.0,6.0,12.0,1.0,4.0,0,0,2,2,0
Ski resort Wiriehorn,Zwischenflüh,Switzerland,7.5154413,46.6070635,2.8 out of 5 stars,984 m - 1868 m (Difference 884 m),17.5,9.5,5.0,3.0,7.0,0,0,1,4,0
Ski resort Marbach – Marbachegg,Marbach,Switzerland,9.5686092,47.3919868,2.8 out of 5 stars,885 m - 1474 m (Difference 589 m),7.4,5.0,2.4,0.0,5.0,0,1,0,2,0
Ski resort Predeal,Predeal,Romania,25.5761577,45.5026879,2.8 out of 5 stars,1040 m - 1451 m (Difference 411 m),7.4,1.8,4.4,1.2,2.0,0,0,1,1,0
Ski resort Steckenberg – Unterammergau,Unterammergau,Germany,11.0286344,47.6155933,2.8 out of 5 stars,840 m - 1050 m (Difference 210 m),3.9,1.0,2.5,0.4,7.0,0,0,0,5,0
Ski resort Tjørhomfjellet/​Ålsheia Skisenter – Sirdal,Tjørhom,Norway,6.8519346,58.8882587,2.8 out of 5 stars,560 m - 924 m (Difference 364 m),17.0,10.0,6.0,1.0,9.0,0,0,1,7,0
Ski resort Valdesquí,Rascafría,Spain,-3.8802853,40.9038871,2.8 out of 5 stars,1860 m - 2278 m (Difference 418 m),22.3,18.8,3.5,0.0,13.0,0,0,6,6,0
Ski resort Bielmonte,Trivero,Italy,8.1069391,45.6044799,2.8 out of 5 stars,1229 m - 1621 m (Difference 392 m),20.0,10.0,8.0,2.0,7.0,0,0,5,2,0
Ski resort Hochwang – Goldgruben,Fatschél,Switzerland,9.6535358,46.8392396,2.8 out of 5 stars,1544 m - 2299 m (Difference 755 m),20.0,9.0,9.0,2.0,3.0,0,0,1,1,0
Ski resort Argentera,Argentera,Italy,6.954209480373419,44.37462905,2.8 out of 5 stars,1630 m - 2480 m (Difference 850 m),20.0,10.0,8.0,2.0,4.0,0,0,1,3,0
Ski resort Les Mosses/​La Lécherette,La Lécherette,Switzerland,7.106108,46.4203898,2.8 out of 5 stars,1379 m - 1874 m (Difference 495 m),40.0,10.0,30.0,0.0,14.0,0,0,0,11,1
Ski resort Bödele – Schwarzenberg,Schwarzenberg,Austria,9.852372,47.4137551,2.8 out of 5 stars,700 m - 1467 m (Difference 767 m),25.0,9.0,12.0,4.0,12.0,0,0,1,10,0
Ski resort Adria Ski – Kupres,Čajuša,Bosnia and Herzegovina,17.2021739,43.9417021,2.8 out of 5 stars,1189 m - 1528 m (Difference 339 m),13.0,5.9,7.1,0.0,5.0,0,0,2,2,0
Ski resort La Bresse – Hohneck,Belle Hutte,France,6.9634163,48.0334099,2.8 out of 5 stars,872 m - 1350 m (Difference 478 m),21.0,13.0,7.0,1.0,15.0,0,0,6,7,0
Ski resort Szklarska Poręba – Szrenica,Szklarska Poręba,Poland,15.5221261,50.8268011,2.8 out of 5 stars,710 m - 1315 m (Difference 605 m),12.0,3.3,6.7,2.0,8.0,0,0,3,5,0
Ski resort Meander Skipark – Oravice,Oravice,Slovakia,19.754281724886752,49.29851125,2.8 out of 5 stars,785 m - 1055 m (Difference 270 m),7.5,2.0,5.5,0.0,3.0,0,0,1,2,0
Ski resort Bachledova/​Jezersko/​Frankova,Bachledova Dolina,Slovakia,20.3065109,49.2733209,2.8 out of 5 stars,820 m - 1160 m (Difference 340 m),8.0,2.9,3.6,1.5,10.0,0,1,2,4,2
Ski resort Le Grand Puy,Seyne,France,6.3563226,44.3521974,2.8 out of 5 stars,1280 m - 1736 m (Difference 456 m),22.0,12.0,7.0,3.0,5.0,0,0,1,4,0
Ski resort Jaworzyna Krynicka,Krynica-Zdrój,Poland,20.9594176,49.4206138,2.8 out of 5 stars,644 m - 1114 m (Difference 470 m),8.4,1.9,5.5,1.0,10.0,0,1,3,5,1
Ski resort Val Louron,Val Louron,France,0.3899518,42.791965,2.8 out of 5 stars,1400 m - 2058 m (Difference 658 m),19.0,9.0,8.2,1.8,9.0,0,0,3,6,0
Ski resort Malinô Brdo – Ružomberok,Ružomberok,Slovakia,19.3034168,49.0815718,2.8 out of 5 stars,545 m - 1209 m (Difference 664 m),9.6,2.3,6.0,1.3,9.0,0,1,1,6,0
Ski resort Kongsberg (Skimore),Kongsberg,Norway,9.670860075643745,59.59455005,2.8 out of 5 stars,234 m - 567 m (Difference 333 m),9.0,5.0,2.0,2.0,6.0,0,0,1,3,0
Ski resort Chalmazel,Chalmazel,France,3.826896110202133,45.6927686,2.8 out of 5 stars,1110 m - 1600 m (Difference 490 m),12.0,5.0,5.0,2.0,9.0,0,0,1,7,0
Ski resort Le Mourtis,Saint-Béat,France,0.6879078010080522,42.89831624999999,2.8 out of 5 stars,1420 m - 1860 m (Difference 440 m),23.0,12.0,9.0,2.0,9.0,0,0,1,8,0
Ski resort Muntele Mic,Muntele Mic,Romania,25.8764986,46.4400662,2.8 out of 5 stars,1416 m - 1795 m (Difference 379 m),10.2,3.6,6.6,0.0,5.0,0,0,2,3,0
Ski resort Palumbosila,Villaggio Palumbo,Italy,16.652486,39.1928356,2.8 out of 5 stars,1350 m - 1650 m (Difference 300 m),20.0,11.0,9.0,0.0,3.0,0,0,2,1,0
Ski resort Spiazzi di Gromo,Boario Spiazzi,Italy,,,2.8 out of 5 stars,1156 m - 1705 m (Difference 549 m),15.0,1.0,12.0,2.0,4.0,0,0,4,0,0
Ski resort Camigliatello Silano,Spezzano della Sila,Italy,16.3394496,39.2994106,2.8 out of 5 stars,1378 m - 1785 m (Difference 407 m),4.3,2.4,1.9,0.0,1.0,0,1,0,0,0
Ski resort Campo Stella – Leonessa,Leonessa,Italy,12.9638499,42.56315,2.8 out of 5 stars,1129 m - 1696 m (Difference 567 m),14.0,11.0,1.0,2.0,2.0,0,0,2,0,0
Ski resort Røldal,Håra,Norway,6.7708229,59.8119007,2.8 out of 5 stars,680 m - 1281 m (Difference 601 m),15.0,8.0,6.0,1.0,6.0,0,0,1,5,0
Ski resort Laceno – Bagnoli Irpino,Laceno,Italy,15.1155434,40.8036271,2.8 out of 5 stars,1109 m - 1652 m (Difference 543 m),15.3,5.7,2.2,7.4,2.0,0,0,2,0,0
Ski resort Bivio,Bivio,Switzerland,9.6496931,46.4687474,2.8 out of 5 stars,1769 m - 2560 m (Difference 791 m),30.0,13.0,13.0,4.0,4.0,0,0,0,3,1
Ski resort Azuga,Azuga,Romania,25.5693383,45.4444432,2.8 out of 5 stars,978 m - 1539 m (Difference 561 m),8.0,2.5,5.5,0.0,6.0,0,1,0,5,0
Ski resort Vasilitsa,Samarina (Σαμαρίνα),Greece,21.0184241,40.1044349,2.8 out of 5 stars,1642 m - 2110 m (Difference 468 m),22.0,4.0,14.0,4.0,7.0,0,0,2,3,0
Ski resort Klövsjö/​Storhogna,Storhogna,Sweden,14.0896225,62.4983303,2.8 out of 5 stars,448 m - 875 m (Difference 427 m),19.0,13.0,3.0,3.0,16.0,0,0,1,13,2
Ski resort Bodrost/​Kartala,,Bulgaria,,,2.8 out of 5 stars,1440 m - 2350 m (Difference 910 m),5.0,0.5,4.5,0.0,3.0,0,1,0,1,0
Ski resort Rosswald – Brig,Rosswald,Switzerland,7.9143112,46.7113276,2.8 out of 5 stars,(1032 m  -) 1820 m - 2536 m (Difference 716 m),9.0,3.0,2.0,4.0,6.0,0,1,0,4,1
Ski resort Kraličák – Hynčice pod Sušinou/​Stříbrnice,Hynčice pod Sušinou,Czech Republic,16.9015511,50.1588482,2.8 out of 5 stars,630 m - 870 m (Difference 240 m),7.0,2.5,3.6,0.9,6.0,0,0,2,3,0
Ski resort Transalpina – Vidra/​Voineasa,Obârșia Lotrului,Romania,23.6302451,45.435161,2.8 out of 5 stars,1320 m - 1949 m (Difference 629 m),6.1,3.8,2.3,0.0,5.0,0,2,1,2,0
Ski resort Etna Nord – Linguaglossa,Piano Provenzana,Italy,15.0384207,37.7981416,2.8 out of 5 stars,1810 m - 2336 m (Difference 526 m),10.3,1.5,8.8,0.0,4.0,0,0,1,3,0
Ski resort Monte Bianco – Courmayeur,La Palud,Italy,6.9643506,45.8183623,2.8 out of 5 stars,1370 m - 3466 m (Difference 2096 m),0.0,0.0,0.0,0.0,2.0,2,0,0,0,0
Ski resort Rarău – Câmpulung Moldovenesc,,Romania,23.7187908,46.7674886,2.8 out of 5 stars,775 m - 1225 m (Difference 450 m),4.2,1.4,2.8,0.0,1.0,0,1,0,0,0
Ski resort Sappada,Sappada,Italy,12.69543929886029,46.571795050000006,2.8 out of 5 stars,1223 m - 2000 m (Difference 777 m),14.5,4.0,8.2,2.3,9.0,0,0,5,3,0
Ski resort Planneralm – Donnersbach,Planneralm,Austria,14.1979784,47.4090162,2.8 out of 5 stars,1600 m - 2000 m (Difference 400 m),15.0,2.0,11.0,2.0,6.0,0,0,2,2,1
Ski resort Pescasseroli,Pescasseroli,Italy,13.789282,41.808401,2.8 out of 5 stars,1235 m - 1820 m (Difference 585 m),8.5,3.2,3.4,1.9,5.0,0,0,3,1,1
Ski resort Audibergue,Andon,France,6.7858589,43.7734923,2.8 out of 5 stars,1405 m - 1657 m (Difference 252 m),29.0,16.0,12.0,1.0,6.0,0,0,1,5,0
Ski resort Brezovica,Brezovica (Kosovo),Kosovo,14.450951878835872,46.02789125,2.8 out of 5 stars,1718 m - 2522 m (Difference 804 m),15.6,2.0,10.1,3.5,3.0,0,0,2,1,0
Ski resort Javalambre,Camarena de la Sierra,Spain,-1.0408801,40.1483952,2.8 out of 5 stars,1650 m - 2000 m (Difference 350 m),15.0,14.0,1.0,0.0,7.0,0,0,3,4,0
Ski resort Méaudre,Méaudre,France,5.5271394,45.126906,2.8 out of 5 stars,1012 m - 1600 m (Difference 588 m),18.0,12.0,5.0,1.0,10.0,0,0,2,7,0
Ski resort Puigmal,Err,France,2.0328526,42.4406621,2.8 out of 5 stars,1835 m - 2545 m (Difference 710 m),20.0,9.7,7.3,3.0,4.0,0,0,1,2,0
Ski resort La Fouly,La Fouly,Switzerland,7.0989678,45.9331158,2.8 out of 5 stars,1607 m - 2172 m (Difference 565 m),15.0,6.0,4.0,5.0,4.0,0,0,1,2,0
Ski resort Vassfjellet – Klæbu/​Trondheim,Klæbu,Norway,11.7328594,64.080118,2.8 out of 5 stars,198 m - 659 m (Difference 461 m),15.0,6.8,6.8,1.4,8.0,0,0,1,5,0
Ski resort Szymoszkowa,Zakopane,Poland,19.9504753,49.2969114,2.8 out of 5 stars,859 m - 1120 m (Difference 261 m),4.0,2.0,2.0,0.0,3.0,0,0,2,0,1
Ski resort Kellerjoch – Schwaz,Hochpillberg,Austria,11.7247075,47.3087898,2.8 out of 5 stars,1352 m - 1887 m (Difference 535 m),14.0,9.5,2.4,2.1,5.0,0,0,1,2,2
Ski resort Pian Munè – Paesana,Paesana,Italy,7.2738406,44.6845642,2.8 out of 5 stars,1530 m - 2060 m (Difference 530 m),16.0,7.0,7.0,2.0,4.0,0,0,1,1,0
Ski resort Aflenz Bürgeralm,Aflenz,Austria,15.260717022715935,47.56930010000001,2.8 out of 5 stars,810 m - 1810 m (Difference 1000 m),14.0,2.0,10.0,2.0,8.0,0,0,1,6,0
Ski resort Panarotta 2002 – Valsugana,Levico Terme,Italy,11.3017774,46.0091259,2.8 out of 5 stars,1518 m - 2002 m (Difference 484 m),18.0,6.0,6.0,6.0,5.0,0,0,3,0,2
Ski resort Monte Catria,Frontone,Italy,12.7344818,43.5137227,2.8 out of 5 stars,572 m - 1478 m (Difference 906 m),12.0,2.2,9.5,0.3,3.0,0,1,2,0,0
Ski resort Borno – Monte Altissimo,Borno,Italy,10.2064036,45.9473303,2.8 out of 5 stars,952 m - 1694 m (Difference 742 m),14.4,0.5,10.8,3.1,4.0,0,0,3,1,0
Ski resort Bugnenets-Savagnières – Saint-Imier,Le Pâquier,Switzerland,7.0527454,46.5950644,2.8 out of 5 stars,1078 m - 1449 m (Difference 371 m),30.0,10.0,10.0,10.0,8.0,0,0,0,8,0
Ski resort Sljeme (Medvednica) – Zagreb,Zagreb,Croatia,15.962231476593626,45.84264135,2.8 out of 5 stars,(280 m  -) 730 m - 1030 m (Difference 300 m),4.0,1.5,1.5,1.0,4.0,0,1,1,2,0
Ski resort Céüze 2000 – Gap,Gap,France,6.0820639,44.5612032,2.8 out of 5 stars,1550 m - 2020 m (Difference 470 m),35.0,20.0,15.0,0.0,8.0,0,0,0,8,0
Ski resort Champex-Lac (Orsières),Champex-Lac,Switzerland,7.1168165,46.0305776,2.8 out of 5 stars,1468 m - 2194 m (Difference 726 m),15.0,10.5,3.0,1.5,4.0,0,0,2,2,0
Ski resort Brusson – Estoul,Brusson,Italy,7.752175390806437,45.75803475,2.8 out of 5 stars,1803 m - 2235 m (Difference 432 m),16.0,3.0,13.0,0.0,3.0,0,0,2,1,0
Ski resort Les Monts d'Olmes,Montferrier,France,1.7934509,42.8946406,2.8 out of 5 stars,1400 m - 1950 m (Difference 550 m),23.0,10.0,13.0,0.0,13.0,0,0,1,9,0
Ski resort Ötscher – Lackenhof (Gaming),Lackenhof,Austria,15.73297,47.2663585,2.8 out of 5 stars,812 m - 1426 m (Difference 614 m),15.5,5.3,6.6,3.6,7.0,0,0,3,3,1
Ski resort Buková hora – Čenkovice/​Červená Voda,Červená Voda,Czech Republic,16.7426822,50.0402915,2.8 out of 5 stars,557 m - 958 m (Difference 401 m),8.5,2.5,6.0,0.0,7.0,0,0,2,5,0
Ski resort Krinnenalpe – Nesselwängle,Nesselwängle,Austria,10.6109439,47.4850217,2.8 out of 5 stars,1150 m - 1671 m (Difference 521 m),13.0,5.0,7.0,1.0,6.0,0,0,1,3,1
Ski resort Paseky nad Jizerou,Paseky nad Jizerou,Czech Republic,15.393650608939105,50.7392156,2.8 out of 5 stars,620 m - 860 m (Difference 240 m),9.6,5.8,3.8,0.0,6.0,0,0,2,2,0
Ski resort Master Ski – Tylicz,Tylicz,Poland,21.0236531,49.3964757,2.8 out of 5 stars,567 m - 680 m (Difference 113 m),9.5,7.0,2.5,0.0,6.0,0,0,2,2,0
Ski resort Autrans – La Sure,Autrans,France,5.54415,45.176,2.8 out of 5 stars,1050 m - 1710 m (Difference 660 m),20.0,10.0,8.0,2.0,7.0,0,0,1,6,0
Ski resort Ascou Pailhères,Ascou,France,1.8627729,42.7210937,2.8 out of 5 stars,1480 m - 2058 m (Difference 578 m),20.0,11.0,7.0,2.0,7.0,0,0,1,5,0
